{
"type": "FeatureCollection",
"name": "displaceSP2",
"crs": { "type": "name", "properties": { "name": "urn:ogc:def:crs:OGC:1.3:CRS84" } },
"features": [
{ "type": "Feature", "properties": { "DTMRound": 23, "State": "ADAMAWA", "StatePcode": "NG002", "LGAPcode": "NG002001", "LGA": "DEMSA", "WardCode": "NG002001001", "Ward": "BILLE", "SiteID": "AD_H001", "Site Name": "BILLE", "Longitude": 11.90344, "Latitude": 9.26325, "classifica": "Host Communities", "NumberHous": 55, "NumberIndi": 330 }, "geometry": { "type": "Point", "coordinates": [ 11.90344, 9.26325 ] } },
{ "type": "Feature", "properties": { "DTMRound": 23, "State": "ADAMAWA", "StatePcode": "NG002", "LGAPcode": "NG002001", "LGA": "DEMSA", "WardCode": "NG002001001", "Ward": "BILLE", "SiteID": "AD_H002", "Site Name": "GEJEMBO", "Longitude": 11.90238, "Latitude": 9.26751, "classifica": "Host Communities", "NumberHous": 35, "NumberIndi": 210 }, "geometry": { "type": "Point", "coordinates": [ 11.90238, 9.26751 ] } },
{ "type": "Feature", "properties": { "DTMRound": 23, "State": "ADAMAWA", "StatePcode": "NG002", "LGAPcode": "NG002001", "LGA": "DEMSA", "WardCode": "NG002001002", "Ward": "BORRONG", "SiteID": "AD_H004", "Site Name": "TIKKA", "Longitude": 12.23103, "Latitude": 9.54568, "classifica": "Host Communities", "NumberHous": 55, "NumberIndi": 330 }, "geometry": { "type": "Point", "coordinates": [ 12.23103, 9.54568 ] } },
{ "type": "Feature", "properties": { "DTMRound": 23, "State": "ADAMAWA", "StatePcode": "NG002", "LGAPcode": "NG002001", "LGA": "DEMSA", "WardCode": "NG002001002", "Ward": "BORRONG", "SiteID": "AD_H005", "Site Name": "BORRONG B", "Longitude": 12.17874, "Latitude": 9.53868, "classifica": "Host Communities", "NumberHous": 72, "NumberIndi": 432 }, "geometry": { "type": "Point", "coordinates": [ 12.17874, 9.53868 ] } },
{ "type": "Feature", "properties": { "DTMRound": 23, "State": "ADAMAWA", "StatePcode": "NG002", "LGAPcode": "NG002001", "LGA": "DEMSA", "WardCode": "NG002001002", "Ward": "BORRONG", "SiteID": "AD_H006", "Site Name": "BORRONG A", "Longitude": 12.18101, "Latitude": 9.53608, "classifica": "Host Communities", "NumberHous": 84, "NumberIndi": 504 }, "geometry": { "type": "Point", "coordinates": [ 12.18101, 9.53608 ] } },
{ "type": "Feature", "properties": { "DTMRound": 23, "State": "ADAMAWA", "StatePcode": "NG002", "LGAPcode": "NG002001", "LGA": "DEMSA", "WardCode": "NG002001002", "Ward": "BORRONG", "SiteID": "AD_H487", "Site Name": "LASALA", "Longitude": 12.18448, "Latitude": 9.56044, "classifica": "Host Communities", "NumberHous": 66, "NumberIndi": 396 }, "geometry": { "type": "Point", "coordinates": [ 12.18448, 9.56044 ] } },
{ "type": "Feature", "properties": { "DTMRound": 23, "State": "ADAMAWA", "StatePcode": "NG002", "LGAPcode": "NG002001", "LGA": "DEMSA", "WardCode": "NG002001003", "Ward": "DEMSA", "SiteID": "AD_H007", "Site Name": "DEMSA", "Longitude": 12.13402, "Latitude": 9.42646, "classifica": "Host Communities", "NumberHous": 125, "NumberIndi": 750 }, "geometry": { "type": "Point", "coordinates": [ 12.13402, 9.42646 ] } },
{ "type": "Feature", "properties": { "DTMRound": 23, "State": "ADAMAWA", "StatePcode": "NG002", "LGAPcode": "NG002001", "LGA": "DEMSA", "WardCode": "NG002001003", "Ward": "DEMSA", "SiteID": "AD_H008", "Site Name": "KEDEMUN", "Longitude": 12.22322, "Latitude": 9.4579, "classifica": "Host Communities", "NumberHous": 135, "NumberIndi": 810 }, "geometry": { "type": "Point", "coordinates": [ 12.22322, 9.4579 ] } },
{ "type": "Feature", "properties": { "DTMRound": 23, "State": "ADAMAWA", "StatePcode": "NG002", "LGAPcode": "NG002001", "LGA": "DEMSA", "WardCode": "NG002001003", "Ward": "DEMSA", "SiteID": "AD_H009", "Site Name": "KWAYINE", "Longitude": 12.3643, "Latitude": 9.39895, "classifica": "Host Communities", "NumberHous": 207, "NumberIndi": 1242 }, "geometry": { "type": "Point", "coordinates": [ 12.3643, 9.39895 ] } },
{ "type": "Feature", "properties": { "DTMRound": 23, "State": "ADAMAWA", "StatePcode": "NG002", "LGAPcode": "NG002001", "LGA": "DEMSA", "WardCode": "NG002001003", "Ward": "DEMSA", "SiteID": "AD_H010", "Site Name": "MUGARANG", "Longitude": 12.17759, "Latitude": 9.45942, "classifica": "Host Communities", "NumberHous": 113, "NumberIndi": 678 }, "geometry": { "type": "Point", "coordinates": [ 12.17759, 9.45942 ] } },
{ "type": "Feature", "properties": { "DTMRound": 23, "State": "ADAMAWA", "StatePcode": "NG002", "LGAPcode": "NG002001", "LGA": "DEMSA", "WardCode": "NG002001004", "Ward": "DILLI", "SiteID": "AD_H011", "Site Name": "DILLI", "Longitude": 12.1608, "Latitude": 9.53421, "classifica": "Host Communities", "NumberHous": 20, "NumberIndi": 120 }, "geometry": { "type": "Point", "coordinates": [ 12.1608, 9.53421 ] } },
{ "type": "Feature", "properties": { "DTMRound": 23, "State": "ADAMAWA", "StatePcode": "NG002", "LGAPcode": "NG002001", "LGA": "DEMSA", "WardCode": "NG002001004", "Ward": "DILLI", "SiteID": "AD_H012", "Site Name": "LOH", "Longitude": 12.10531, "Latitude": 9.50061, "classifica": "Host Communities", "NumberHous": 4, "NumberIndi": 24 }, "geometry": { "type": "Point", "coordinates": [ 12.10531, 9.50061 ] } },
{ "type": "Feature", "properties": { "DTMRound": 23, "State": "ADAMAWA", "StatePcode": "NG002", "LGAPcode": "NG002001", "LGA": "DEMSA", "WardCode": "NG002001005", "Ward": "DONG", "SiteID": "AD_H013", "Site Name": "DONG", "Longitude": 11.93362, "Latitude": 9.40498, "classifica": "Host Communities", "NumberHous": 12, "NumberIndi": 72 }, "geometry": { "type": "Point", "coordinates": [ 11.93362, 9.40498 ] } },
{ "type": "Feature", "properties": { "DTMRound": 23, "State": "ADAMAWA", "StatePcode": "NG002", "LGAPcode": "NG002001", "LGA": "DEMSA", "WardCode": "NG002001005", "Ward": "DONG", "SiteID": "AD_H451", "Site Name": "LAWARU", "Longitude": 11.93393, "Latitude": 9.40607, "classifica": "Host Communities", "NumberHous": 751, "NumberIndi": 4506 }, "geometry": { "type": "Point", "coordinates": [ 11.93393, 9.40607 ] } },
{ "type": "Feature", "properties": { "DTMRound": 23, "State": "ADAMAWA", "StatePcode": "NG002", "LGAPcode": "NG002001", "LGA": "DEMSA", "WardCode": "NG002001006", "Ward": "DWAM", "SiteID": "AD_H014", "Site Name": "DWAM", "Longitude": 12.06758, "Latitude": 9.4528, "classifica": "Host Communities", "NumberHous": 8, "NumberIndi": 48 }, "geometry": { "type": "Point", "coordinates": [ 12.06758, 9.4528 ] } },
{ "type": "Feature", "properties": { "DTMRound": 23, "State": "ADAMAWA", "StatePcode": "NG002", "LGAPcode": "NG002001", "LGA": "DEMSA", "WardCode": "NG002001006", "Ward": "DWAM", "SiteID": "AD_H015", "Site Name": "DWAM DAKANTA", "Longitude": 12.06492, "Latitude": 9.45349, "classifica": "Host Communities", "NumberHous": 16, "NumberIndi": 96 }, "geometry": { "type": "Point", "coordinates": [ 12.06492, 9.45349 ] } },
{ "type": "Feature", "properties": { "DTMRound": 23, "State": "ADAMAWA", "StatePcode": "NG002", "LGAPcode": "NG002001", "LGA": "DEMSA", "WardCode": "NG002001007", "Ward": "GWAMBA", "SiteID": "AD_H016", "Site Name": "GWAMBA", "Longitude": 12.1806, "Latitude": 9.62068, "classifica": "Host Communities", "NumberHous": 145, "NumberIndi": 870 }, "geometry": { "type": "Point", "coordinates": [ 12.1806, 9.62068 ] } },
{ "type": "Feature", "properties": { "DTMRound": 23, "State": "ADAMAWA", "StatePcode": "NG002", "LGAPcode": "NG002001", "LGA": "DEMSA", "WardCode": "NG002001007", "Ward": "GWAMBA", "SiteID": "AD_H017", "Site Name": "SUNDI", "Longitude": 12.184, "Latitude": 9.62063, "classifica": "Host Communities", "NumberHous": 10, "NumberIndi": 60 }, "geometry": { "type": "Point", "coordinates": [ 12.184, 9.62063 ] } },
{ "type": "Feature", "properties": { "DTMRound": 23, "State": "ADAMAWA", "StatePcode": "NG002", "LGAPcode": "NG002001", "LGA": "DEMSA", "WardCode": "NG002001008", "Ward": "KPASHAM", "SiteID": "AD_H018", "Site Name": "BAJIYE I", "Longitude": 11.76293, "Latitude": 9.30066, "classifica": "Host Communities", "NumberHous": 152, "NumberIndi": 912 }, "geometry": { "type": "Point", "coordinates": [ 11.76293, 9.30066 ] } },
{ "type": "Feature", "properties": { "DTMRound": 23, "State": "ADAMAWA", "StatePcode": "NG002", "LGAPcode": "NG002001", "LGA": "DEMSA", "WardCode": "NG002001008", "Ward": "KPASHAM", "SiteID": "AD_H019", "Site Name": "KPASHAM", "Longitude": 11.76197, "Latitude": 9.29732, "classifica": "Host Communities", "NumberHous": 14, "NumberIndi": 84 }, "geometry": { "type": "Point", "coordinates": [ 11.76197, 9.29732 ] } },
{ "type": "Feature", "properties": { "DTMRound": 23, "State": "ADAMAWA", "StatePcode": "NG002", "LGAPcode": "NG002001", "LGA": "DEMSA", "WardCode": "NG002001009", "Ward": "MBULA KULI", "SiteID": "AD_H020", "Site Name": "MBULA KULI", "Longitude": 11.76392, "Latitude": 9.29838, "classifica": "Host Communities", "NumberHous": 5, "NumberIndi": 30 }, "geometry": { "type": "Point", "coordinates": [ 11.76392, 9.29838 ] } },
{ "type": "Feature", "properties": { "DTMRound": 23, "State": "ADAMAWA", "StatePcode": "NG002", "LGAPcode": "NG002001", "LGA": "DEMSA", "WardCode": "NG002001009", "Ward": "MBULA KULI", "SiteID": "AD_H021", "Site Name": "BAJIFANG", "Longitude": 11.76458, "Latitude": 9.30231, "classifica": "Host Communities", "NumberHous": 7, "NumberIndi": 42 }, "geometry": { "type": "Point", "coordinates": [ 11.76458, 9.30231 ] } },
{ "type": "Feature", "properties": { "DTMRound": 23, "State": "ADAMAWA", "StatePcode": "NG002", "LGAPcode": "NG002001", "LGA": "DEMSA", "WardCode": "NG002001010", "Ward": "NASSARAWO DEMSA", "SiteID": "AD_H023", "Site Name": "N. DEMSA BEHIND BRIGHT FUTURE", "Longitude": 12.04767, "Latitude": 9.45024, "classifica": "Host Communities", "NumberHous": 20, "NumberIndi": 120 }, "geometry": { "type": "Point", "coordinates": [ 12.04767, 9.45024 ] } },
{ "type": "Feature", "properties": { "DTMRound": 23, "State": "ADAMAWA", "StatePcode": "NG002", "LGAPcode": "NG002001", "LGA": "DEMSA", "WardCode": "NG002001010", "Ward": "NASSARAWO DEMSA", "SiteID": "AD_H024", "Site Name": "NASARAWO DEMSA", "Longitude": 12.03859, "Latitude": 9.4549, "classifica": "Host Communities", "NumberHous": 15, "NumberIndi": 90 }, "geometry": { "type": "Point", "coordinates": [ 12.03859, 9.4549 ] } },
{ "type": "Feature", "properties": { "DTMRound": 23, "State": "ADAMAWA", "StatePcode": "NG002", "LGAPcode": "NG002002", "LGA": "FUFORE", "WardCode": "NG002002001", "Ward": "BETI", "SiteID": "AD_H025", "Site Name": "ANG. WATTUJE", "Longitude": 12.61663, "Latitude": 9.07671, "classifica": "Host Communities", "NumberHous": 11, "NumberIndi": 44 }, "geometry": { "type": "Point", "coordinates": [ 12.61663, 9.07671 ] } },
{ "type": "Feature", "properties": { "DTMRound": 23, "State": "ADAMAWA", "StatePcode": "NG002", "LGAPcode": "NG002002", "LGA": "FUFORE", "WardCode": "NG002002001", "Ward": "BETI", "SiteID": "AD_H026", "Site Name": "ANG. TIKE", "Longitude": 12.66419, "Latitude": 9.06542, "classifica": "Host Communities", "NumberHous": 5, "NumberIndi": 36 }, "geometry": { "type": "Point", "coordinates": [ 12.66419, 9.06542 ] } },
{ "type": "Feature", "properties": { "DTMRound": 23, "State": "ADAMAWA", "StatePcode": "NG002", "LGAPcode": "NG002002", "LGA": "FUFORE", "WardCode": "NG002002001", "Ward": "BETI", "SiteID": "AD_H027", "Site Name": "PANIRE", "Longitude": 12.66263, "Latitude": 9.07023, "classifica": "Host Communities", "NumberHous": 3, "NumberIndi": 11 }, "geometry": { "type": "Point", "coordinates": [ 12.66263, 9.07023 ] } },
{ "type": "Feature", "properties": { "DTMRound": 23, "State": "ADAMAWA", "StatePcode": "NG002", "LGAPcode": "NG002002", "LGA": "FUFORE", "WardCode": "NG002002002", "Ward": "FARANG", "SiteID": "AD_H028", "Site Name": "NASARAWO", "Longitude": 12.78546, "Latitude": 9.56401, "classifica": "Host Communities", "NumberHous": 10, "NumberIndi": 50 }, "geometry": { "type": "Point", "coordinates": [ 12.78546, 9.56401 ] } },
{ "type": "Feature", "properties": { "DTMRound": 23, "State": "ADAMAWA", "StatePcode": "NG002", "LGAPcode": "NG002002", "LGA": "FUFORE", "WardCode": "NG002002002", "Ward": "FARANG", "SiteID": "AD_H029", "Site Name": "GASHIGA", "Longitude": 12.9107, "Latitude": 9.57651, "classifica": "Host Communities", "NumberHous": 5, "NumberIndi": 51 }, "geometry": { "type": "Point", "coordinates": [ 12.9107, 9.57651 ] } },
{ "type": "Feature", "properties": { "DTMRound": 23, "State": "ADAMAWA", "StatePcode": "NG002", "LGAPcode": "NG002002", "LGA": "FUFORE", "WardCode": "NG002002002", "Ward": "FARANG", "SiteID": "AD_H030", "Site Name": "DADIN KOWA", "Longitude": 12.91652, "Latitude": 9.58291, "classifica": "Host Communities", "NumberHous": 7, "NumberIndi": 30 }, "geometry": { "type": "Point", "coordinates": [ 12.91652, 9.58291 ] } },
{ "type": "Feature", "properties": { "DTMRound": 23, "State": "ADAMAWA", "StatePcode": "NG002", "LGAPcode": "NG002002", "LGA": "FUFORE", "WardCode": "NG002002002", "Ward": "FARANG", "SiteID": "AD_H031", "Site Name": "BABAL", "Longitude": 12.77885, "Latitude": 9.55869, "classifica": "Host Communities", "NumberHous": 6, "NumberIndi": 33 }, "geometry": { "type": "Point", "coordinates": [ 12.77885, 9.55869 ] } },
{ "type": "Feature", "properties": { "DTMRound": 23, "State": "ADAMAWA", "StatePcode": "NG002", "LGAPcode": "NG002002", "LGA": "FUFORE", "WardCode": "NG002002002", "Ward": "FARANG", "SiteID": "AD_H032", "Site Name": "FATTUDE LAWAN", "Longitude": 12.91659, "Latitude": 9.57978, "classifica": "Host Communities", "NumberHous": 3, "NumberIndi": 9 }, "geometry": { "type": "Point", "coordinates": [ 12.91659, 9.57978 ] } },
{ "type": "Feature", "properties": { "DTMRound": 23, "State": "ADAMAWA", "StatePcode": "NG002", "LGAPcode": "NG002002", "LGA": "FUFORE", "WardCode": "NG002002002", "Ward": "FARANG", "SiteID": "AD_H033", "Site Name": "YELWA", "Longitude": 12.78224, "Latitude": 9.55276, "classifica": "Host Communities", "NumberHous": 4, "NumberIndi": 21 }, "geometry": { "type": "Point", "coordinates": [ 12.78224, 9.55276 ] } },
{ "type": "Feature", "properties": { "DTMRound": 23, "State": "ADAMAWA", "StatePcode": "NG002", "LGAPcode": "NG002002", "LGA": "FUFORE", "WardCode": "NG002002003", "Ward": "FUFORE", "SiteID": "AD_H034", "Site Name": "WURO AHI", "Longitude": 12.6543, "Latitude": 9.21765, "classifica": "Host Communities", "NumberHous": 52, "NumberIndi": 235 }, "geometry": { "type": "Point", "coordinates": [ 12.6543, 9.21765 ] } },
{ "type": "Feature", "properties": { "DTMRound": 23, "State": "ADAMAWA", "StatePcode": "NG002", "LGAPcode": "NG002002", "LGA": "FUFORE", "WardCode": "NG002002003", "Ward": "FUFORE", "SiteID": "AD_H035", "Site Name": "MAR GIRE", "Longitude": 12.64191, "Latitude": 9.21804, "classifica": "Host Communities", "NumberHous": 20, "NumberIndi": 96 }, "geometry": { "type": "Point", "coordinates": [ 12.64191, 9.21804 ] } },
{ "type": "Feature", "properties": { "DTMRound": 23, "State": "ADAMAWA", "StatePcode": "NG002", "LGAPcode": "NG002002", "LGA": "FUFORE", "WardCode": "NG002002004", "Ward": "GURIN", "SiteID": "AD_H036", "Site Name": "LAKARE", "Longitude": 12.87434, "Latitude": 9.11642, "classifica": "Host Communities", "NumberHous": 2, "NumberIndi": 20 }, "geometry": { "type": "Point", "coordinates": [ 12.87434, 9.11642 ] } },
{ "type": "Feature", "properties": { "DTMRound": 23, "State": "ADAMAWA", "StatePcode": "NG002", "LGAPcode": "NG002002", "LGA": "FUFORE", "WardCode": "NG002002004", "Ward": "GURIN", "SiteID": "AD_H037", "Site Name": "WURO KESUM", "Longitude": 12.87983, "Latitude": 9.08661, "classifica": "Host Communities", "NumberHous": 10, "NumberIndi": 73 }, "geometry": { "type": "Point", "coordinates": [ 12.87983, 9.08661 ] } },
{ "type": "Feature", "properties": { "DTMRound": 23, "State": "ADAMAWA", "StatePcode": "NG002", "LGAPcode": "NG002002", "LGA": "FUFORE", "WardCode": "NG002002004", "Ward": "GURIN", "SiteID": "AD_H038", "Site Name": "NGONGRE", "Longitude": 12.88891, "Latitude": 9.11074, "classifica": "Host Communities", "NumberHous": 10, "NumberIndi": 47 }, "geometry": { "type": "Point", "coordinates": [ 12.88891, 9.11074 ] } },
{ "type": "Feature", "properties": { "DTMRound": 23, "State": "ADAMAWA", "StatePcode": "NG002", "LGAPcode": "NG002002", "LGA": "FUFORE", "WardCode": "NG002002004", "Ward": "GURIN", "SiteID": "AD_H039", "Site Name": "ANGUWAN TIVI", "Longitude": 12.8855, "Latitude": 9.10895, "classifica": "Host Communities", "NumberHous": 14, "NumberIndi": 65 }, "geometry": { "type": "Point", "coordinates": [ 12.8855, 9.10895 ] } },
{ "type": "Feature", "properties": { "DTMRound": 23, "State": "ADAMAWA", "StatePcode": "NG002", "LGAPcode": "NG002002", "LGA": "FUFORE", "WardCode": "NG002002004", "Ward": "GURIN", "SiteID": "AD_H040", "Site Name": "WURO YOLDE", "Longitude": 12.86973, "Latitude": 9.11392, "classifica": "Host Communities", "NumberHous": 7, "NumberIndi": 42 }, "geometry": { "type": "Point", "coordinates": [ 12.86973, 9.11392 ] } },
{ "type": "Feature", "properties": { "DTMRound": 23, "State": "ADAMAWA", "StatePcode": "NG002", "LGAPcode": "NG002002", "LGA": "FUFORE", "WardCode": "NG002002004", "Ward": "GURIN", "SiteID": "AD_H041", "Site Name": "HIRNANGE", "Longitude": 12.88028, "Latitude": 9.11014, "classifica": "Host Communities", "NumberHous": 13, "NumberIndi": 58 }, "geometry": { "type": "Point", "coordinates": [ 12.88028, 9.11014 ] } },
{ "type": "Feature", "properties": { "DTMRound": 23, "State": "ADAMAWA", "StatePcode": "NG002", "LGAPcode": "NG002021", "LGA": "FUFORE", "WardCode": "NG002021003", "Ward": "MAYO INE", "SiteID": "AD_H484", "Site Name": "KOHI MANGA", "Longitude": 12.35287, "Latitude": 9.14598, "classifica": "Host Communities", "NumberHous": 68, "NumberIndi": 562 }, "geometry": { "type": "Point", "coordinates": [ 12.35287, 9.14598 ] } },
{ "type": "Feature", "properties": { "DTMRound": 23, "State": "ADAMAWA", "StatePcode": "NG002", "LGAPcode": "NG002002", "LGA": "FUFORE", "WardCode": "NG002002008", "Ward": "RIBADU", "SiteID": "AD_H043", "Site Name": "DULO FULANI", "Longitude": 12.79633, "Latitude": 9.29598, "classifica": "Host Communities", "NumberHous": 104, "NumberIndi": 340 }, "geometry": { "type": "Point", "coordinates": [ 12.79633, 9.29598 ] } },
{ "type": "Feature", "properties": { "DTMRound": 23, "State": "ADAMAWA", "StatePcode": "NG002", "LGAPcode": "NG002002", "LGA": "FUFORE", "WardCode": "NG002002008", "Ward": "RIBADU", "SiteID": "AD_H044", "Site Name": "KOLERE", "Longitude": 12.71503, "Latitude": 9.29717, "classifica": "Host Communities", "NumberHous": 3, "NumberIndi": 18 }, "geometry": { "type": "Point", "coordinates": [ 12.71503, 9.29717 ] } },
{ "type": "Feature", "properties": { "DTMRound": 23, "State": "ADAMAWA", "StatePcode": "NG002", "LGAPcode": "NG002002", "LGA": "FUFORE", "WardCode": "NG002002008", "Ward": "RIBADU", "SiteID": "AD_H045", "Site Name": "NGURORE", "Longitude": 12.72033, "Latitude": 9.30652, "classifica": "Host Communities", "NumberHous": 3, "NumberIndi": 23 }, "geometry": { "type": "Point", "coordinates": [ 12.72033, 9.30652 ] } },
{ "type": "Feature", "properties": { "DTMRound": 23, "State": "ADAMAWA", "StatePcode": "NG002", "LGAPcode": "NG002003", "LGA": "GANYE", "WardCode": "NG002003002", "Ward": "GAMU", "SiteID": "AD_H046", "Site Name": "GAMU", "Longitude": 12.06837, "Latitude": 8.26744, "classifica": "Host Communities", "NumberHous": 13, "NumberIndi": 95 }, "geometry": { "type": "Point", "coordinates": [ 12.06837, 8.26744 ] } },
{ "type": "Feature", "properties": { "DTMRound": 23, "State": "ADAMAWA", "StatePcode": "NG002", "LGAPcode": "NG002003", "LGA": "GANYE", "WardCode": "NG002003003", "Ward": "GANYE I", "SiteID": "AD_H047", "Site Name": "TSOHAN KASUWA", "Longitude": 12.05309, "Latitude": 8.43159, "classifica": "Host Communities", "NumberHous": 7, "NumberIndi": 46 }, "geometry": { "type": "Point", "coordinates": [ 12.05309, 8.43159 ] } },
{ "type": "Feature", "properties": { "DTMRound": 23, "State": "ADAMAWA", "StatePcode": "NG002", "LGAPcode": "NG002003", "LGA": "GANYE", "WardCode": "NG002003003", "Ward": "GANYE I", "SiteID": "AD_H048", "Site Name": "TUDUN WADA", "Longitude": 12.03988, "Latitude": 8.45764, "classifica": "Host Communities", "NumberHous": 10, "NumberIndi": 64 }, "geometry": { "type": "Point", "coordinates": [ 12.03988, 8.45764 ] } },
{ "type": "Feature", "properties": { "DTMRound": 23, "State": "ADAMAWA", "StatePcode": "NG002", "LGAPcode": "NG002003", "LGA": "GANYE", "WardCode": "NG002003003", "Ward": "GANYE I", "SiteID": "AD_H049", "Site Name": "ANGUWAN JADA", "Longitude": 12.04528, "Latitude": 8.4458, "classifica": "Host Communities", "NumberHous": 7, "NumberIndi": 40 }, "geometry": { "type": "Point", "coordinates": [ 12.04528, 8.4458 ] } },
{ "type": "Feature", "properties": { "DTMRound": 23, "State": "ADAMAWA", "StatePcode": "NG002", "LGAPcode": "NG002003", "LGA": "GANYE", "WardCode": "NG002003003", "Ward": "GANYE I", "SiteID": "AD_H050", "Site Name": "GANYE 1", "Longitude": 12.0513, "Latitude": 8.45169, "classifica": "Host Communities", "NumberHous": 18, "NumberIndi": 100 }, "geometry": { "type": "Point", "coordinates": [ 12.0513, 8.45169 ] } },
{ "type": "Feature", "properties": { "DTMRound": 23, "State": "ADAMAWA", "StatePcode": "NG002", "LGAPcode": "NG002003", "LGA": "GANYE", "WardCode": "NG002003004", "Ward": "GANYE II", "SiteID": "AD_H051", "Site Name": "LUGGERE", "Longitude": 12.06359, "Latitude": 8.43202, "classifica": "Host Communities", "NumberHous": 8, "NumberIndi": 39 }, "geometry": { "type": "Point", "coordinates": [ 12.06359, 8.43202 ] } },
{ "type": "Feature", "properties": { "DTMRound": 23, "State": "ADAMAWA", "StatePcode": "NG002", "LGAPcode": "NG002003", "LGA": "GANYE", "WardCode": "NG002003004", "Ward": "GANYE II", "SiteID": "AD_H052", "Site Name": "GANGARASO", "Longitude": 12.05902, "Latitude": 8.44591, "classifica": "Host Communities", "NumberHous": 7, "NumberIndi": 43 }, "geometry": { "type": "Point", "coordinates": [ 12.05902, 8.44591 ] } },
{ "type": "Feature", "properties": { "DTMRound": 23, "State": "ADAMAWA", "StatePcode": "NG002", "LGAPcode": "NG002003", "LGA": "GANYE", "WardCode": "NG002003004", "Ward": "GANYE II", "SiteID": "AD_H053", "Site Name": "MAIDUGURI", "Longitude": 12.05172, "Latitude": 8.45197, "classifica": "Host Communities", "NumberHous": 9, "NumberIndi": 50 }, "geometry": { "type": "Point", "coordinates": [ 12.05172, 8.45197 ] } },
{ "type": "Feature", "properties": { "DTMRound": 23, "State": "ADAMAWA", "StatePcode": "NG002", "LGAPcode": "NG002003", "LGA": "GANYE", "WardCode": "NG002003004", "Ward": "GANYE II", "SiteID": "AD_H054", "Site Name": "BAKIN KASUWA", "Longitude": 12.05876, "Latitude": 8.44105, "classifica": "Host Communities", "NumberHous": 8, "NumberIndi": 51 }, "geometry": { "type": "Point", "coordinates": [ 12.05876, 8.44105 ] } },
{ "type": "Feature", "properties": { "DTMRound": 23, "State": "ADAMAWA", "StatePcode": "NG002", "LGAPcode": "NG002003", "LGA": "GANYE", "WardCode": "NG002003004", "Ward": "GANYE II", "SiteID": "AD_H055", "Site Name": "OPPOSITE NINETEL", "Longitude": 12.0586, "Latitude": 8.43875, "classifica": "Host Communities", "NumberHous": 8, "NumberIndi": 59 }, "geometry": { "type": "Point", "coordinates": [ 12.0586, 8.43875 ] } },
{ "type": "Feature", "properties": { "DTMRound": 23, "State": "ADAMAWA", "StatePcode": "NG002", "LGAPcode": "NG002003", "LGA": "GANYE", "WardCode": "NG002003004", "Ward": "GANYE II", "SiteID": "AD_H056", "Site Name": "WUKARI", "Longitude": 12.05846, "Latitude": 8.45466, "classifica": "Host Communities", "NumberHous": 9, "NumberIndi": 49 }, "geometry": { "type": "Point", "coordinates": [ 12.05846, 8.45466 ] } },
{ "type": "Feature", "properties": { "DTMRound": 23, "State": "ADAMAWA", "StatePcode": "NG002", "LGAPcode": "NG002003", "LGA": "GANYE", "WardCode": "NG002003007", "Ward": "SANGASUMI", "SiteID": "AD_H057", "Site Name": "ANGUWAN SHAKATA", "Longitude": 12.03851, "Latitude": 8.43434, "classifica": "Host Communities", "NumberHous": 7, "NumberIndi": 54 }, "geometry": { "type": "Point", "coordinates": [ 12.03851, 8.43434 ] } },
{ "type": "Feature", "properties": { "DTMRound": 23, "State": "ADAMAWA", "StatePcode": "NG002", "LGAPcode": "NG002003", "LGA": "GANYE", "WardCode": "NG002003007", "Ward": "SANGASUMI", "SiteID": "AD_H058", "Site Name": "DAWASA", "Longitude": 12.04329, "Latitude": 8.43111, "classifica": "Host Communities", "NumberHous": 8, "NumberIndi": 98 }, "geometry": { "type": "Point", "coordinates": [ 12.04329, 8.43111 ] } },
{ "type": "Feature", "properties": { "DTMRound": 23, "State": "ADAMAWA", "StatePcode": "NG002", "LGAPcode": "NG002003", "LGA": "GANYE", "WardCode": "NG002003007", "Ward": "SANGASUMI", "SiteID": "AD_H059", "Site Name": "GANYE III", "Longitude": 12.04281, "Latitude": 8.43284, "classifica": "Host Communities", "NumberHous": 5, "NumberIndi": 40 }, "geometry": { "type": "Point", "coordinates": [ 12.04281, 8.43284 ] } },
{ "type": "Feature", "properties": { "DTMRound": 23, "State": "ADAMAWA", "StatePcode": "NG002", "LGAPcode": "NG002003", "LGA": "GANYE", "WardCode": "NG002003008", "Ward": "SUGU", "SiteID": "AD_H060", "Site Name": "SABON KASUWA", "Longitude": 12.06701, "Latitude": 8.37052, "classifica": "Host Communities", "NumberHous": 7, "NumberIndi": 64 }, "geometry": { "type": "Point", "coordinates": [ 12.06701, 8.37052 ] } },
{ "type": "Feature", "properties": { "DTMRound": 23, "State": "ADAMAWA", "StatePcode": "NG002", "LGAPcode": "NG002004", "LGA": "GIREI", "WardCode": "NG002004001", "Ward": "DAKRI", "SiteID": "AD_H061", "Site Name": "WURO ALHAJI", "Longitude": 12.45766, "Latitude": 9.33472, "classifica": "Host Communities", "NumberHous": 14, "NumberIndi": 61 }, "geometry": { "type": "Point", "coordinates": [ 12.45766, 9.33472 ] } },
{ "type": "Feature", "properties": { "DTMRound": 23, "State": "ADAMAWA", "StatePcode": "NG002", "LGAPcode": "NG002004", "LGA": "GIREI", "WardCode": "NG002004001", "Ward": "DAKRI", "SiteID": "AD_H062", "Site Name": "DARKI", "Longitude": 12.4721, "Latitude": 9.33412, "classifica": "Host Communities", "NumberHous": 48, "NumberIndi": 202 }, "geometry": { "type": "Point", "coordinates": [ 12.4721, 9.33412 ] } },
{ "type": "Feature", "properties": { "DTMRound": 23, "State": "ADAMAWA", "StatePcode": "NG002", "LGAPcode": "NG002004", "LGA": "GIREI", "WardCode": "NG002004001", "Ward": "DAKRI", "SiteID": "AD_H063", "Site Name": "FEDERAL HOUSING", "Longitude": 12.47898, "Latitude": 9.31808, "classifica": "Host Communities", "NumberHous": 172, "NumberIndi": 742 }, "geometry": { "type": "Point", "coordinates": [ 12.47898, 9.31808 ] } },
{ "type": "Feature", "properties": { "DTMRound": 23, "State": "ADAMAWA", "StatePcode": "NG002", "LGAPcode": "NG002004", "LGA": "GIREI", "WardCode": "NG002004002", "Ward": "DAMARE", "SiteID": "AD_H064", "Site Name": "BAJABURE", "Longitude": 12.46516, "Latitude": 9.30316, "classifica": "Host Communities", "NumberHous": 89, "NumberIndi": 318 }, "geometry": { "type": "Point", "coordinates": [ 12.46516, 9.30316 ] } },
{ "type": "Feature", "properties": { "DTMRound": 23, "State": "ADAMAWA", "StatePcode": "NG002", "LGAPcode": "NG002004", "LGA": "GIREI", "WardCode": "NG002004002", "Ward": "DAMARE", "SiteID": "AD_H065", "Site Name": "TAFARE", "Longitude": 12.45172, "Latitude": 9.31853, "classifica": "Host Communities", "NumberHous": 158, "NumberIndi": 587 }, "geometry": { "type": "Point", "coordinates": [ 12.45172, 9.31853 ] } },
{ "type": "Feature", "properties": { "DTMRound": 23, "State": "ADAMAWA", "StatePcode": "NG002", "LGAPcode": "NG002004", "LGA": "GIREI", "WardCode": "NG002004002", "Ward": "DAMARE", "SiteID": "AD_H066", "Site Name": "DAMARE", "Longitude": 12.44461, "Latitude": 9.31599, "classifica": "Host Communities", "NumberHous": 7, "NumberIndi": 38 }, "geometry": { "type": "Point", "coordinates": [ 12.44461, 9.31599 ] } },
{ "type": "Feature", "properties": { "DTMRound": 23, "State": "ADAMAWA", "StatePcode": "NG002", "LGAPcode": "NG002004", "LGA": "GIREI", "WardCode": "NG002004002", "Ward": "DAMARE", "SiteID": "AD_H067", "Site Name": "LIADE", "Longitude": 12.46029, "Latitude": 9.31334, "classifica": "Host Communities", "NumberHous": 188, "NumberIndi": 746 }, "geometry": { "type": "Point", "coordinates": [ 12.46029, 9.31334 ] } },
{ "type": "Feature", "properties": { "DTMRound": 23, "State": "ADAMAWA", "StatePcode": "NG002", "LGAPcode": "NG002004", "LGA": "GIREI", "WardCode": "NG002004002", "Ward": "DAMARE", "SiteID": "AD_H068", "Site Name": "BADARISA", "Longitude": 12.47189, "Latitude": 9.30584, "classifica": "Host Communities", "NumberHous": 86, "NumberIndi": 410 }, "geometry": { "type": "Point", "coordinates": [ 12.47189, 9.30584 ] } },
{ "type": "Feature", "properties": { "DTMRound": 23, "State": "ADAMAWA", "StatePcode": "NG002", "LGAPcode": "NG002004", "LGA": "GIREI", "WardCode": "NG002004004", "Ward": "GIREI  II", "SiteID": "AD_H069", "Site Name": "SABON FEGI", "Longitude": 12.55931, "Latitude": 9.37582, "classifica": "Host Communities", "NumberHous": 74, "NumberIndi": 290 }, "geometry": { "type": "Point", "coordinates": [ 12.55931, 9.37582 ] } },
{ "type": "Feature", "properties": { "DTMRound": 23, "State": "ADAMAWA", "StatePcode": "NG002", "LGAPcode": "NG002004", "LGA": "GIREI", "WardCode": "NG002004004", "Ward": "GIREI  II", "SiteID": "AD_H070", "Site Name": "MAI TURARE", "Longitude": 12.55222, "Latitude": 9.37211, "classifica": "Host Communities", "NumberHous": 69, "NumberIndi": 468 }, "geometry": { "type": "Point", "coordinates": [ 12.55222, 9.37211 ] } },
{ "type": "Feature", "properties": { "DTMRound": 23, "State": "ADAMAWA", "StatePcode": "NG002", "LGAPcode": "NG002004", "LGA": "GIREI", "WardCode": "NG002004003", "Ward": "GIREI I", "SiteID": "AD_H071", "Site Name": "SABON GARI", "Longitude": 12.50727, "Latitude": 9.33938, "classifica": "Host Communities", "NumberHous": 279, "NumberIndi": 1628 }, "geometry": { "type": "Point", "coordinates": [ 12.50727, 9.33938 ] } },
{ "type": "Feature", "properties": { "DTMRound": 23, "State": "ADAMAWA", "StatePcode": "NG002", "LGAPcode": "NG002004", "LGA": "GIREI", "WardCode": "NG002004003", "Ward": "GIREI I", "SiteID": "AD_H072", "Site Name": "ZUMA", "Longitude": 12.5085, "Latitude": 9.33893, "classifica": "Host Communities", "NumberHous": 150, "NumberIndi": 486 }, "geometry": { "type": "Point", "coordinates": [ 12.5085, 9.33893 ] } },
{ "type": "Feature", "properties": { "DTMRound": 23, "State": "ADAMAWA", "StatePcode": "NG002", "LGAPcode": "NG002004", "LGA": "GIREI", "WardCode": "NG002004003", "Ward": "GIREI I", "SiteID": "AD_H073", "Site Name": "SANGERE", "Longitude": 12.51341, "Latitude": 9.34431, "classifica": "Host Communities", "NumberHous": 599, "NumberIndi": 2051 }, "geometry": { "type": "Point", "coordinates": [ 12.51341, 9.34431 ] } },
{ "type": "Feature", "properties": { "DTMRound": 23, "State": "ADAMAWA", "StatePcode": "NG002", "LGAPcode": "NG002004", "LGA": "GIREI", "WardCode": "NG002004006", "Ward": "JERA BAKARI", "SiteID": "AD_H074", "Site Name": "KOFAR MAI ANGWA", "Longitude": 12.53764, "Latitude": 9.52865, "classifica": "Host Communities", "NumberHous": 14, "NumberIndi": 40 }, "geometry": { "type": "Point", "coordinates": [ 12.53764, 9.52865 ] } },
{ "type": "Feature", "properties": { "DTMRound": 23, "State": "ADAMAWA", "StatePcode": "NG002", "LGAPcode": "NG002004", "LGA": "GIREI", "WardCode": "NG002004006", "Ward": "JERA BAKARI", "SiteID": "AD_H075", "Site Name": "UNGWAN YUNGUR", "Longitude": 12.491, "Latitude": 9.505, "classifica": "Host Communities", "NumberHous": 27, "NumberIndi": 79 }, "geometry": { "type": "Point", "coordinates": [ 12.491, 9.505 ] } },
{ "type": "Feature", "properties": { "DTMRound": 23, "State": "ADAMAWA", "StatePcode": "NG002", "LGAPcode": "NG002004", "LGA": "GIREI", "WardCode": "NG002004006", "Ward": "JERA BAKARI", "SiteID": "AD_H076", "Site Name": "BAKIN KASUWA", "Longitude": 12.49995, "Latitude": 9.50503, "classifica": "Host Communities", "NumberHous": 26, "NumberIndi": 75 }, "geometry": { "type": "Point", "coordinates": [ 12.49995, 9.50503 ] } },
{ "type": "Feature", "properties": { "DTMRound": 23, "State": "ADAMAWA", "StatePcode": "NG002", "LGAPcode": "NG002004", "LGA": "GIREI", "WardCode": "NG002004007", "Ward": "JERA BONYO", "SiteID": "AD_H077", "Site Name": "FATI DALAWA", "Longitude": 12.50513, "Latitude": 9.53597, "classifica": "Host Communities", "NumberHous": 16, "NumberIndi": 67 }, "geometry": { "type": "Point", "coordinates": [ 12.50513, 9.53597 ] } },
{ "type": "Feature", "properties": { "DTMRound": 23, "State": "ADAMAWA", "StatePcode": "NG002", "LGAPcode": "NG002004", "LGA": "GIREI", "WardCode": "NG002004007", "Ward": "JERA BONYO", "SiteID": "AD_H078", "Site Name": "UNGWAN CHIBOK", "Longitude": 12.53741, "Latitude": 9.52749, "classifica": "Host Communities", "NumberHous": 14, "NumberIndi": 88 }, "geometry": { "type": "Point", "coordinates": [ 12.53741, 9.52749 ] } },
{ "type": "Feature", "properties": { "DTMRound": 23, "State": "ADAMAWA", "StatePcode": "NG002", "LGAPcode": "NG002004", "LGA": "GIREI", "WardCode": "NG002004007", "Ward": "JERA BONYO", "SiteID": "AD_H079", "Site Name": "DANYEL", "Longitude": 12.50146, "Latitude": 9.53271, "classifica": "Host Communities", "NumberHous": 46, "NumberIndi": 184 }, "geometry": { "type": "Point", "coordinates": [ 12.50146, 9.53271 ] } },
{ "type": "Feature", "properties": { "DTMRound": 23, "State": "ADAMAWA", "StatePcode": "NG002", "LGAPcode": "NG002004", "LGA": "GIREI", "WardCode": "NG002004008", "Ward": "MODIRE\/ VINIKILANG", "SiteID": "AD_H080", "Site Name": "ANGWAN FULANI", "Longitude": 12.48875, "Latitude": 9.30444, "classifica": "Host Communities", "NumberHous": 178, "NumberIndi": 938 }, "geometry": { "type": "Point", "coordinates": [ 12.48875, 9.30444 ] } },
{ "type": "Feature", "properties": { "DTMRound": 23, "State": "ADAMAWA", "StatePcode": "NG002", "LGAPcode": "NG002004", "LGA": "GIREI", "WardCode": "NG002004008", "Ward": "MODIRE\/ VINIKILANG", "SiteID": "AD_H081", "Site Name": "MAKAR WUTA", "Longitude": 12.48012, "Latitude": 9.29134, "classifica": "Host Communities", "NumberHous": 18, "NumberIndi": 92 }, "geometry": { "type": "Point", "coordinates": [ 12.48012, 9.29134 ] } },
{ "type": "Feature", "properties": { "DTMRound": 23, "State": "ADAMAWA", "StatePcode": "NG002", "LGAPcode": "NG002004", "LGA": "GIREI", "WardCode": "NG002004008", "Ward": "MODIRE\/ VINIKILANG", "SiteID": "AD_H082", "Site Name": "JABBORE", "Longitude": 12.49431, "Latitude": 9.29147, "classifica": "Host Communities", "NumberHous": 134, "NumberIndi": 682 }, "geometry": { "type": "Point", "coordinates": [ 12.49431, 9.29147 ] } },
{ "type": "Feature", "properties": { "DTMRound": 23, "State": "ADAMAWA", "StatePcode": "NG002", "LGAPcode": "NG002004", "LGA": "GIREI", "WardCode": "NG002004008", "Ward": "MODIRE\/ VINIKILANG", "SiteID": "AD_H083", "Site Name": "VINIKILANG", "Longitude": 12.48633, "Latitude": 9.30552, "classifica": "Host Communities", "NumberHous": 136, "NumberIndi": 697 }, "geometry": { "type": "Point", "coordinates": [ 12.48633, 9.30552 ] } },
{ "type": "Feature", "properties": { "DTMRound": 23, "State": "ADAMAWA", "StatePcode": "NG002", "LGAPcode": "NG002004", "LGA": "GIREI", "WardCode": "NG002004008", "Ward": "MODIRE\/ VINIKILANG", "SiteID": "AD_H084", "Site Name": "JAURO BUBA", "Longitude": 12.48469, "Latitude": 9.29912, "classifica": "Host Communities", "NumberHous": 175, "NumberIndi": 873 }, "geometry": { "type": "Point", "coordinates": [ 12.48469, 9.29912 ] } },
{ "type": "Feature", "properties": { "DTMRound": 23, "State": "ADAMAWA", "StatePcode": "NG002", "LGAPcode": "NG002004", "LGA": "GIREI", "WardCode": "NG002004010", "Ward": "WURO DOLE", "SiteID": "AD_H085", "Site Name": "LAKKAILA", "Longitude": 12.60382, "Latitude": 9.37907, "classifica": "Host Communities", "NumberHous": 87, "NumberIndi": 203 }, "geometry": { "type": "Point", "coordinates": [ 12.60382, 9.37907 ] } },
{ "type": "Feature", "properties": { "DTMRound": 23, "State": "ADAMAWA", "StatePcode": "NG002", "LGAPcode": "NG002004", "LGA": "GIREI", "WardCode": "NG002004010", "Ward": "WURO DOLE", "SiteID": "AD_H086", "Site Name": "SANGERE JABBILUM", "Longitude": 12.58191, "Latitude": 9.48339, "classifica": "Host Communities", "NumberHous": 239, "NumberIndi": 732 }, "geometry": { "type": "Point", "coordinates": [ 12.58191, 9.48339 ] } },
{ "type": "Feature", "properties": { "DTMRound": 23, "State": "ADAMAWA", "StatePcode": "NG002", "LGAPcode": "NG002004", "LGA": "GIREI", "WardCode": "NG002004010", "Ward": "WURO DOLE", "SiteID": "AD_H087", "Site Name": "JABBI LAMBA", "Longitude": 12.576, "Latitude": 9.49888, "classifica": "Host Communities", "NumberHous": 199, "NumberIndi": 410 }, "geometry": { "type": "Point", "coordinates": [ 12.576, 9.49888 ] } },
{ "type": "Feature", "properties": { "DTMRound": 23, "State": "ADAMAWA", "StatePcode": "NG002", "LGAPcode": "NG002005", "LGA": "GOMBI", "WardCode": "NG002005001", "Ward": "BOGA\/ DINGAI", "SiteID": "AD_H088", "Site Name": "JEBBRE", "Longitude": 12.3486, "Latitude": 10.15232, "classifica": "Host Communities", "NumberHous": 3, "NumberIndi": 12 }, "geometry": { "type": "Point", "coordinates": [ 12.3486, 10.15232 ] } },
{ "type": "Feature", "properties": { "DTMRound": 23, "State": "ADAMAWA", "StatePcode": "NG002", "LGAPcode": "NG002005", "LGA": "GOMBI", "WardCode": "NG002005001", "Ward": "BOGA\/ DINGAI", "SiteID": "AD_H089", "Site Name": "DINGAI", "Longitude": 12.33882, "Latitude": 10.12613, "classifica": "Host Communities", "NumberHous": 11, "NumberIndi": 74 }, "geometry": { "type": "Point", "coordinates": [ 12.33882, 10.12613 ] } },
{ "type": "Feature", "properties": { "DTMRound": 23, "State": "ADAMAWA", "StatePcode": "NG002", "LGAPcode": "NG002005", "LGA": "GOMBI", "WardCode": "NG002005001", "Ward": "BOGA\/ DINGAI", "SiteID": "AD_H090", "Site Name": "BOGA", "Longitude": 12.39603, "Latitude": 10.13113, "classifica": "Host Communities", "NumberHous": 8, "NumberIndi": 48 }, "geometry": { "type": "Point", "coordinates": [ 12.39603, 10.13113 ] } },
{ "type": "Feature", "properties": { "DTMRound": 23, "State": "ADAMAWA", "StatePcode": "NG002", "LGAPcode": "NG002005", "LGA": "GOMBI", "WardCode": "NG002005002", "Ward": "DUWA", "SiteID": "AD_H091", "Site Name": "KOFAN HAKIMI FOTTA", "Longitude": 12.3345, "Latitude": 10.09718, "classifica": "Host Communities", "NumberHous": 4, "NumberIndi": 38 }, "geometry": { "type": "Point", "coordinates": [ 12.3345, 10.09718 ] } },
{ "type": "Feature", "properties": { "DTMRound": 23, "State": "ADAMAWA", "StatePcode": "NG002", "LGAPcode": "NG002005", "LGA": "GOMBI", "WardCode": "NG002005003", "Ward": "GA'ANDA", "SiteID": "AD_H092", "Site Name": "GUDUBAN", "Longitude": 12.43449, "Latitude": 10.14791, "classifica": "Host Communities", "NumberHous": 2, "NumberIndi": 18 }, "geometry": { "type": "Point", "coordinates": [ 12.43449, 10.14791 ] } },
{ "type": "Feature", "properties": { "DTMRound": 23, "State": "ADAMAWA", "StatePcode": "NG002", "LGAPcode": "NG002005", "LGA": "GOMBI", "WardCode": "NG002005003", "Ward": "GA'ANDA", "SiteID": "AD_H093", "Site Name": "GALUNDA", "Longitude": 12.43371, "Latitude": 10.16026, "classifica": "Host Communities", "NumberHous": 1, "NumberIndi": 11 }, "geometry": { "type": "Point", "coordinates": [ 12.43371, 10.16026 ] } },
{ "type": "Feature", "properties": { "DTMRound": 23, "State": "ADAMAWA", "StatePcode": "NG002", "LGAPcode": "NG002005", "LGA": "GOMBI", "WardCode": "NG002005003", "Ward": "GA'ANDA", "SiteID": "AD_H094", "Site Name": "CHICHERA", "Longitude": 12.43736, "Latitude": 10.18389, "classifica": "Host Communities", "NumberHous": 2, "NumberIndi": 31 }, "geometry": { "type": "Point", "coordinates": [ 12.43736, 10.18389 ] } },
{ "type": "Feature", "properties": { "DTMRound": 23, "State": "ADAMAWA", "StatePcode": "NG002", "LGAPcode": "NG002005", "LGA": "GOMBI", "WardCode": "NG002005004", "Ward": "GABUN", "SiteID": "AD_H095", "Site Name": "HUR GABUN", "Longitude": 12.37378, "Latitude": 10.18238, "classifica": "Host Communities", "NumberHous": 19, "NumberIndi": 84 }, "geometry": { "type": "Point", "coordinates": [ 12.37378, 10.18238 ] } },
{ "type": "Feature", "properties": { "DTMRound": 23, "State": "ADAMAWA", "StatePcode": "NG002", "LGAPcode": "NG002005", "LGA": "GOMBI", "WardCode": "NG002005004", "Ward": "GABUN", "SiteID": "AD_H096", "Site Name": "KOFAN JAURO", "Longitude": 12.36991, "Latitude": 10.18681, "classifica": "Host Communities", "NumberHous": 4, "NumberIndi": 36 }, "geometry": { "type": "Point", "coordinates": [ 12.36991, 10.18681 ] } },
{ "type": "Feature", "properties": { "DTMRound": 23, "State": "ADAMAWA", "StatePcode": "NG002", "LGAPcode": "NG002005", "LGA": "GOMBI", "WardCode": "NG002005005", "Ward": "GARKIDA", "SiteID": "AD_H097", "Site Name": "POSSI A", "Longitude": 12.56613, "Latitude": 10.40625, "classifica": "Host Communities", "NumberHous": 7, "NumberIndi": 42 }, "geometry": { "type": "Point", "coordinates": [ 12.56613, 10.40625 ] } },
{ "type": "Feature", "properties": { "DTMRound": 23, "State": "ADAMAWA", "StatePcode": "NG002", "LGAPcode": "NG002005", "LGA": "GOMBI", "WardCode": "NG002005005", "Ward": "GARKIDA", "SiteID": "AD_H098", "Site Name": "POSSI B", "Longitude": 12.56762, "Latitude": 10.40413, "classifica": "Host Communities", "NumberHous": 6, "NumberIndi": 46 }, "geometry": { "type": "Point", "coordinates": [ 12.56762, 10.40413 ] } },
{ "type": "Feature", "properties": { "DTMRound": 23, "State": "ADAMAWA", "StatePcode": "NG002", "LGAPcode": "NG002005", "LGA": "GOMBI", "WardCode": "NG002005005", "Ward": "GARKIDA", "SiteID": "AD_H099", "Site Name": "WAKIL MALLAM", "Longitude": 12.56491, "Latitude": 10.40489, "classifica": "Host Communities", "NumberHous": 25, "NumberIndi": 164 }, "geometry": { "type": "Point", "coordinates": [ 12.56491, 10.40489 ] } },
{ "type": "Feature", "properties": { "DTMRound": 23, "State": "ADAMAWA", "StatePcode": "NG002", "LGAPcode": "NG002005", "LGA": "GOMBI", "WardCode": "NG002005005", "Ward": "GARKIDA", "SiteID": "AD_H100", "Site Name": "ZARA ZAKAMA", "Longitude": 12.56201, "Latitude": 10.40721, "classifica": "Host Communities", "NumberHous": 17, "NumberIndi": 87 }, "geometry": { "type": "Point", "coordinates": [ 12.56201, 10.40721 ] } },
{ "type": "Feature", "properties": { "DTMRound": 23, "State": "ADAMAWA", "StatePcode": "NG002", "LGAPcode": "NG002005", "LGA": "GOMBI", "WardCode": "NG002005006", "Ward": "GOMBI NORTH", "SiteID": "AD_H101", "Site Name": "IMPROVED PRIVATE SCHOOL", "Longitude": 12.73508, "Latitude": 10.18352, "classifica": "Host Communities", "NumberHous": 26, "NumberIndi": 130 }, "geometry": { "type": "Point", "coordinates": [ 12.73508, 10.18352 ] } },
{ "type": "Feature", "properties": { "DTMRound": 23, "State": "ADAMAWA", "StatePcode": "NG002", "LGAPcode": "NG002005", "LGA": "GOMBI", "WardCode": "NG002005006", "Ward": "GOMBI NORTH", "SiteID": "AD_H103", "Site Name": "ANGUWAN HUJI", "Longitude": 12.73335, "Latitude": 10.18032, "classifica": "Host Communities", "NumberHous": 13, "NumberIndi": 132 }, "geometry": { "type": "Point", "coordinates": [ 12.73335, 10.18032 ] } },
{ "type": "Feature", "properties": { "DTMRound": 23, "State": "ADAMAWA", "StatePcode": "NG002", "LGAPcode": "NG002005", "LGA": "GOMBI", "WardCode": "NG002005006", "Ward": "GOMBI NORTH", "SiteID": "AD_H105", "Site Name": "NAYI NAWA", "Longitude": 12.72687, "Latitude": 10.17235, "classifica": "Host Communities", "NumberHous": 36, "NumberIndi": 208 }, "geometry": { "type": "Point", "coordinates": [ 12.72687, 10.17235 ] } },
{ "type": "Feature", "properties": { "DTMRound": 23, "State": "ADAMAWA", "StatePcode": "NG002", "LGAPcode": "NG002005", "LGA": "GOMBI", "WardCode": "NG002005006", "Ward": "GOMBI NORTH", "SiteID": "AD_H106", "Site Name": "LABARGE", "Longitude": 12.72569, "Latitude": 10.17759, "classifica": "Host Communities", "NumberHous": 74, "NumberIndi": 301 }, "geometry": { "type": "Point", "coordinates": [ 12.72569, 10.17759 ] } },
{ "type": "Feature", "properties": { "DTMRound": 23, "State": "ADAMAWA", "StatePcode": "NG002", "LGAPcode": "NG002005", "LGA": "GOMBI", "WardCode": "NG002005007", "Ward": "GOMBI SOUTH", "SiteID": "AD_H107", "Site Name": "SHALHOLMA DIOCESE", "Longitude": 12.7492, "Latitude": 10.14595, "classifica": "Host Communities", "NumberHous": 16, "NumberIndi": 83 }, "geometry": { "type": "Point", "coordinates": [ 12.7492, 10.14595 ] } },
{ "type": "Feature", "properties": { "DTMRound": 23, "State": "ADAMAWA", "StatePcode": "NG002", "LGAPcode": "NG002005", "LGA": "GOMBI", "WardCode": "NG002005007", "Ward": "GOMBI SOUTH", "SiteID": "AD_H108", "Site Name": "UNGUWAN FARANSA", "Longitude": 12.73942, "Latitude": 10.16068, "classifica": "Host Communities", "NumberHous": 13, "NumberIndi": 102 }, "geometry": { "type": "Point", "coordinates": [ 12.73942, 10.16068 ] } },
{ "type": "Feature", "properties": { "DTMRound": 23, "State": "ADAMAWA", "StatePcode": "NG002", "LGAPcode": "NG002005", "LGA": "GOMBI", "WardCode": "NG002005007", "Ward": "GOMBI SOUTH", "SiteID": "AD_H109", "Site Name": "UNGUWAN LAINDE", "Longitude": 12.74528, "Latitude": 10.15391, "classifica": "Host Communities", "NumberHous": 14, "NumberIndi": 110 }, "geometry": { "type": "Point", "coordinates": [ 12.74528, 10.15391 ] } },
{ "type": "Feature", "properties": { "DTMRound": 23, "State": "ADAMAWA", "StatePcode": "NG002", "LGAPcode": "NG002005", "LGA": "GOMBI", "WardCode": "NG002005007", "Ward": "GOMBI SOUTH", "SiteID": "AD_H110", "Site Name": "KWARWA", "Longitude": 12.73524, "Latitude": 10.14286, "classifica": "Host Communities", "NumberHous": 24, "NumberIndi": 213 }, "geometry": { "type": "Point", "coordinates": [ 12.73524, 10.14286 ] } },
{ "type": "Feature", "properties": { "DTMRound": 23, "State": "ADAMAWA", "StatePcode": "NG002", "LGAPcode": "NG002005", "LGA": "GOMBI", "WardCode": "NG002005007", "Ward": "GOMBI SOUTH", "SiteID": "AD_H111", "Site Name": "UNGUWAN L.C.C.N", "Longitude": 12.73591, "Latitude": 10.13649, "classifica": "Host Communities", "NumberHous": 12, "NumberIndi": 101 }, "geometry": { "type": "Point", "coordinates": [ 12.73591, 10.13649 ] } },
{ "type": "Feature", "properties": { "DTMRound": 23, "State": "ADAMAWA", "StatePcode": "NG002", "LGAPcode": "NG002005", "LGA": "GOMBI", "WardCode": "NG002005008", "Ward": "GUYAKU", "SiteID": "AD_H112", "Site Name": "GUYAKU", "Longitude": 12.65982, "Latitude": 10.33799, "classifica": "Host Communities", "NumberHous": 6, "NumberIndi": 39 }, "geometry": { "type": "Point", "coordinates": [ 12.65982, 10.33799 ] } },
{ "type": "Feature", "properties": { "DTMRound": 23, "State": "ADAMAWA", "StatePcode": "NG002", "LGAPcode": "NG002005", "LGA": "GOMBI", "WardCode": "NG002005008", "Ward": "GUYAKU", "SiteID": "AD_H113", "Site Name": "KWALAMBA", "Longitude": 12.57332, "Latitude": 10.37321, "classifica": "Host Communities", "NumberHous": 16, "NumberIndi": 141 }, "geometry": { "type": "Point", "coordinates": [ 12.57332, 10.37321 ] } },
{ "type": "Feature", "properties": { "DTMRound": 23, "State": "ADAMAWA", "StatePcode": "NG002", "LGAPcode": "NG002005", "LGA": "GOMBI", "WardCode": "NG002005008", "Ward": "GUYAKU", "SiteID": "AD_H114", "Site Name": "TELA BALA", "Longitude": 12.67432, "Latitude": 10.32393, "classifica": "Host Communities", "NumberHous": 3, "NumberIndi": 23 }, "geometry": { "type": "Point", "coordinates": [ 12.67432, 10.32393 ] } },
{ "type": "Feature", "properties": { "DTMRound": 23, "State": "ADAMAWA", "StatePcode": "NG002", "LGAPcode": "NG002005", "LGA": "GOMBI", "WardCode": "NG002005009", "Ward": "TAWA", "SiteID": "AD_H115", "Site Name": "MARARABAN BOKKI", "Longitude": 12.668, "Latitude": 10.04559, "classifica": "Host Communities", "NumberHous": 4, "NumberIndi": 29 }, "geometry": { "type": "Point", "coordinates": [ 12.668, 10.04559 ] } },
{ "type": "Feature", "properties": { "DTMRound": 23, "State": "ADAMAWA", "StatePcode": "NG002", "LGAPcode": "NG002005", "LGA": "GOMBI", "WardCode": "NG002005009", "Ward": "TAWA", "SiteID": "AD_H116", "Site Name": "SANGERE GARKUWA", "Longitude": 12.67514, "Latitude": 10.07188, "classifica": "Host Communities", "NumberHous": 3, "NumberIndi": 21 }, "geometry": { "type": "Point", "coordinates": [ 12.67514, 10.07188 ] } },
{ "type": "Feature", "properties": { "DTMRound": 23, "State": "ADAMAWA", "StatePcode": "NG002", "LGAPcode": "NG002006", "LGA": "GUYUK", "WardCode": "NG002006007", "Ward": "GUYUK", "SiteID": "AD_H117", "Site Name": "ANGUWAN WAJA", "Longitude": 11.93248, "Latitude": 9.90418, "classifica": "Host Communities", "NumberHous": 29, "NumberIndi": 148 }, "geometry": { "type": "Point", "coordinates": [ 11.93248, 9.90418 ] } },
{ "type": "Feature", "properties": { "DTMRound": 23, "State": "ADAMAWA", "StatePcode": "NG002", "LGAPcode": "NG002006", "LGA": "GUYUK", "WardCode": "NG002006007", "Ward": "GUYUK", "SiteID": "AD_H118", "Site Name": "CHAKAWO", "Longitude": 11.93274, "Latitude": 9.91032, "classifica": "Host Communities", "NumberHous": 10, "NumberIndi": 45 }, "geometry": { "type": "Point", "coordinates": [ 11.93274, 9.91032 ] } },
{ "type": "Feature", "properties": { "DTMRound": 23, "State": "ADAMAWA", "StatePcode": "NG002", "LGAPcode": "NG002006", "LGA": "GUYUK", "WardCode": "NG002006007", "Ward": "GUYUK", "SiteID": "AD_H119", "Site Name": "PWALMOLIYE", "Longitude": 11.94232, "Latitude": 9.90587, "classifica": "Host Communities", "NumberHous": 8, "NumberIndi": 34 }, "geometry": { "type": "Point", "coordinates": [ 11.94232, 9.90587 ] } },
{ "type": "Feature", "properties": { "DTMRound": 23, "State": "ADAMAWA", "StatePcode": "NG002", "LGAPcode": "NG002006", "LGA": "GUYUK", "WardCode": "NG002006009", "Ward": "LOKORO", "SiteID": "AD_H120", "Site Name": "GUNDA", "Longitude": 11.9565, "Latitude": 9.71635, "classifica": "Host Communities", "NumberHous": 2, "NumberIndi": 10 }, "geometry": { "type": "Point", "coordinates": [ 11.9565, 9.71635 ] } },
{ "type": "Feature", "properties": { "DTMRound": 23, "State": "ADAMAWA", "StatePcode": "NG002", "LGAPcode": "NG002006", "LGA": "GUYUK", "WardCode": "NG002006009", "Ward": "LOKORO", "SiteID": "AD_H121", "Site Name": "SUKAHYA", "Longitude": 11.9422, "Latitude": 9.90602, "classifica": "Host Communities", "NumberHous": 1, "NumberIndi": 6 }, "geometry": { "type": "Point", "coordinates": [ 11.9422, 9.90602 ] } },
{ "type": "Feature", "properties": { "DTMRound": 23, "State": "ADAMAWA", "StatePcode": "NG002", "LGAPcode": "NG002006", "LGA": "GUYUK", "WardCode": "NG002006010", "Ward": "PUROKAYO", "SiteID": "AD_H122", "Site Name": "NASARAWO", "Longitude": 11.9268, "Latitude": 9.91658, "classifica": "Host Communities", "NumberHous": 7, "NumberIndi": 38 }, "geometry": { "type": "Point", "coordinates": [ 11.9268, 9.91658 ] } },
{ "type": "Feature", "properties": { "DTMRound": 23, "State": "ADAMAWA", "StatePcode": "NG002", "LGAPcode": "NG002006", "LGA": "GUYUK", "WardCode": "NG002006010", "Ward": "PUROKAYO", "SiteID": "AD_H123", "Site Name": "LAKUMNA", "Longitude": 11.93251, "Latitude": 9.91016, "classifica": "Host Communities", "NumberHous": 5, "NumberIndi": 25 }, "geometry": { "type": "Point", "coordinates": [ 11.93251, 9.91016 ] } },
{ "type": "Feature", "properties": { "DTMRound": 23, "State": "ADAMAWA", "StatePcode": "NG002", "LGAPcode": "NG002007", "LGA": "HONG", "WardCode": "NG002007001", "Ward": "BANGSHIKA", "SiteID": "AD_H124", "Site Name": "KALA'A", "Longitude": 13.02682, "Latitude": 10.24967, "classifica": "Host Communities", "NumberHous": 20, "NumberIndi": 112 }, "geometry": { "type": "Point", "coordinates": [ 13.02682, 10.24967 ] } },
{ "type": "Feature", "properties": { "DTMRound": 23, "State": "ADAMAWA", "StatePcode": "NG002", "LGAPcode": "NG002007", "LGA": "HONG", "WardCode": "NG002007001", "Ward": "BANGSHIKA", "SiteID": "AD_H125", "Site Name": "BANGSHIKA", "Longitude": 12.98729, "Latitude": 10.20363, "classifica": "Host Communities", "NumberHous": 1, "NumberIndi": 3 }, "geometry": { "type": "Point", "coordinates": [ 12.98729, 10.20363 ] } },
{ "type": "Feature", "properties": { "DTMRound": 23, "State": "ADAMAWA", "StatePcode": "NG002", "LGAPcode": "NG002007", "LGA": "HONG", "WardCode": "NG002007001", "Ward": "BANGSHIKA", "SiteID": "AD_H126", "Site Name": "KWAMBLA", "Longitude": 13.09588, "Latitude": 10.26665, "classifica": "Host Communities", "NumberHous": 2, "NumberIndi": 7 }, "geometry": { "type": "Point", "coordinates": [ 13.09588, 10.26665 ] } },
{ "type": "Feature", "properties": { "DTMRound": 23, "State": "ADAMAWA", "StatePcode": "NG002", "LGAPcode": "NG002007", "LGA": "HONG", "WardCode": "NG002007001", "Ward": "BANGSHIKA", "SiteID": "AD_H127", "Site Name": "FADAMA RAKE", "Longitude": 12.97708, "Latitude": 10.22795, "classifica": "Host Communities", "NumberHous": 5, "NumberIndi": 25 }, "geometry": { "type": "Point", "coordinates": [ 12.97708, 10.22795 ] } },
{ "type": "Feature", "properties": { "DTMRound": 23, "State": "ADAMAWA", "StatePcode": "NG002", "LGAPcode": "NG002007", "LGA": "HONG", "WardCode": "NG002007001", "Ward": "BANGSHIKA", "SiteID": "AD_H128", "Site Name": "MAKERA", "Longitude": 13.0746, "Latitude": 10.28555, "classifica": "Host Communities", "NumberHous": 5, "NumberIndi": 31 }, "geometry": { "type": "Point", "coordinates": [ 13.0746, 10.28555 ] } },
{ "type": "Feature", "properties": { "DTMRound": 23, "State": "ADAMAWA", "StatePcode": "NG002", "LGAPcode": "NG002007", "LGA": "HONG", "WardCode": "NG002007002", "Ward": "DAKSIRI", "SiteID": "AD_H129", "Site Name": "ZHEDINYI", "Longitude": 12.98352, "Latitude": 10.13829, "classifica": "Host Communities", "NumberHous": 2, "NumberIndi": 11 }, "geometry": { "type": "Point", "coordinates": [ 12.98352, 10.13829 ] } },
{ "type": "Feature", "properties": { "DTMRound": 23, "State": "ADAMAWA", "StatePcode": "NG002", "LGAPcode": "NG002007", "LGA": "HONG", "WardCode": "NG002007002", "Ward": "DAKSIRI", "SiteID": "AD_H130", "Site Name": "DAGZA", "Longitude": 13.00568, "Latitude": 10.1525, "classifica": "Host Communities", "NumberHous": 2, "NumberIndi": 13 }, "geometry": { "type": "Point", "coordinates": [ 13.00568, 10.1525 ] } },
{ "type": "Feature", "properties": { "DTMRound": 23, "State": "ADAMAWA", "StatePcode": "NG002", "LGAPcode": "NG002007", "LGA": "HONG", "WardCode": "NG002007002", "Ward": "DAKSIRI", "SiteID": "AD_H131", "Site Name": "WURO BOKKI", "Longitude": 12.88465, "Latitude": 10.174, "classifica": "Host Communities", "NumberHous": 22, "NumberIndi": 116 }, "geometry": { "type": "Point", "coordinates": [ 12.88465, 10.174 ] } },
{ "type": "Feature", "properties": { "DTMRound": 23, "State": "ADAMAWA", "StatePcode": "NG002", "LGAPcode": "NG002007", "LGA": "HONG", "WardCode": "NG002007003", "Ward": "GARAHA", "SiteID": "AD_H132", "Site Name": "DABNA", "Longitude": 12.82001, "Latitude": 10.38381, "classifica": "Host Communities", "NumberHous": 5, "NumberIndi": 30 }, "geometry": { "type": "Point", "coordinates": [ 12.82001, 10.38381 ] } },
{ "type": "Feature", "properties": { "DTMRound": 23, "State": "ADAMAWA", "StatePcode": "NG002", "LGAPcode": "NG002007", "LGA": "HONG", "WardCode": "NG002007003", "Ward": "GARAHA", "SiteID": "AD_H133", "Site Name": "MOJILI", "Longitude": 12.86165, "Latitude": 10.36759, "classifica": "Host Communities", "NumberHous": 2, "NumberIndi": 20 }, "geometry": { "type": "Point", "coordinates": [ 12.86165, 10.36759 ] } },
{ "type": "Feature", "properties": { "DTMRound": 23, "State": "ADAMAWA", "StatePcode": "NG002", "LGAPcode": "NG002007", "LGA": "HONG", "WardCode": "NG002007003", "Ward": "GARAHA", "SiteID": "AD_H134", "Site Name": "KWAPRE", "Longitude": 12.84613, "Latitude": 10.46671, "classifica": "Host Communities", "NumberHous": 6, "NumberIndi": 43 }, "geometry": { "type": "Point", "coordinates": [ 12.84613, 10.46671 ] } },
{ "type": "Feature", "properties": { "DTMRound": 23, "State": "ADAMAWA", "StatePcode": "NG002", "LGAPcode": "NG002007", "LGA": "HONG", "WardCode": "NG002007003", "Ward": "GARAHA", "SiteID": "AD_H494", "Site Name": "SHASHAU", "Longitude": 12.85578, "Latitude": 10.32272, "classifica": "Host Communities", "NumberHous": 133, "NumberIndi": 751 }, "geometry": { "type": "Point", "coordinates": [ 12.85578, 10.32272 ] } },
{ "type": "Feature", "properties": { "DTMRound": 23, "State": "ADAMAWA", "StatePcode": "NG002", "LGAPcode": "NG002007", "LGA": "HONG", "WardCode": "NG035004005", "Ward": "GAYA", "SiteID": "AD_H136", "Site Name": "KUVA", "Longitude": 13.00339, "Latitude": 10.43253, "classifica": "Host Communities", "NumberHous": 4, "NumberIndi": 27 }, "geometry": { "type": "Point", "coordinates": [ 13.00339, 10.43253 ] } },
{ "type": "Feature", "properties": { "DTMRound": 23, "State": "ADAMAWA", "StatePcode": "NG002", "LGAPcode": "NG002007", "LGA": "HONG", "WardCode": "NG035004005", "Ward": "GAYA", "SiteID": "AD_H138", "Site Name": "GARTSANU", "Longitude": 12.97505, "Latitude": 10.4133, "classifica": "Host Communities", "NumberHous": 11, "NumberIndi": 56 }, "geometry": { "type": "Point", "coordinates": [ 12.97505, 10.4133 ] } },
{ "type": "Feature", "properties": { "DTMRound": 23, "State": "ADAMAWA", "StatePcode": "NG002", "LGAPcode": "NG002007", "LGA": "HONG", "WardCode": "NG035004005", "Ward": "GAYA", "SiteID": "AD_H139", "Site Name": "GUWU DUTSE", "Longitude": 12.98467, "Latitude": 10.41971, "classifica": "Host Communities", "NumberHous": 15, "NumberIndi": 78 }, "geometry": { "type": "Point", "coordinates": [ 12.98467, 10.41971 ] } },
{ "type": "Feature", "properties": { "DTMRound": 23, "State": "ADAMAWA", "StatePcode": "NG002", "LGAPcode": "NG002007", "LGA": "HONG", "WardCode": "NG002007005", "Ward": "HILDI", "SiteID": "AD_H140", "Site Name": "MUKUVINYI", "Longitude": 13.16487, "Latitude": 10.40486, "classifica": "Host Communities", "NumberHous": 13, "NumberIndi": 68 }, "geometry": { "type": "Point", "coordinates": [ 13.16487, 10.40486 ] } },
{ "type": "Feature", "properties": { "DTMRound": 23, "State": "ADAMAWA", "StatePcode": "NG002", "LGAPcode": "NG002007", "LGA": "HONG", "WardCode": "NG002007005", "Ward": "HILDI", "SiteID": "AD_H141", "Site Name": "PARAGALDA", "Longitude": 13.17805, "Latitude": 10.39414, "classifica": "Host Communities", "NumberHous": 8, "NumberIndi": 50 }, "geometry": { "type": "Point", "coordinates": [ 13.17805, 10.39414 ] } },
{ "type": "Feature", "properties": { "DTMRound": 23, "State": "ADAMAWA", "StatePcode": "NG002", "LGAPcode": "NG002007", "LGA": "HONG", "WardCode": "NG002007005", "Ward": "HILDI", "SiteID": "AD_H142", "Site Name": "JALINGO DADAWA", "Longitude": 13.21065, "Latitude": 10.3894, "classifica": "Host Communities", "NumberHous": 2, "NumberIndi": 14 }, "geometry": { "type": "Point", "coordinates": [ 13.21065, 10.3894 ] } },
{ "type": "Feature", "properties": { "DTMRound": 23, "State": "ADAMAWA", "StatePcode": "NG002", "LGAPcode": "NG002007", "LGA": "HONG", "WardCode": "NG002007005", "Ward": "HILDI", "SiteID": "AD_H143", "Site Name": "GUWU", "Longitude": 13.17201, "Latitude": 10.4005, "classifica": "Host Communities", "NumberHous": 9, "NumberIndi": 50 }, "geometry": { "type": "Point", "coordinates": [ 13.17201, 10.4005 ] } },
{ "type": "Feature", "properties": { "DTMRound": 23, "State": "ADAMAWA", "StatePcode": "NG002", "LGAPcode": "NG002007", "LGA": "HONG", "WardCode": "NG002007006", "Ward": "HONG", "SiteID": "AD_H144", "Site Name": "KUKURPU", "Longitude": 12.912, "Latitude": 10.22661, "classifica": "Host Communities", "NumberHous": 10, "NumberIndi": 65 }, "geometry": { "type": "Point", "coordinates": [ 12.912, 10.22661 ] } },
{ "type": "Feature", "properties": { "DTMRound": 23, "State": "ADAMAWA", "StatePcode": "NG002", "LGAPcode": "NG002007", "LGA": "HONG", "WardCode": "NG002007006", "Ward": "HONG", "SiteID": "AD_H145", "Site Name": "KWABAKTINA", "Longitude": 12.93193, "Latitude": 10.2419, "classifica": "Host Communities", "NumberHous": 9, "NumberIndi": 63 }, "geometry": { "type": "Point", "coordinates": [ 12.93193, 10.2419 ] } },
{ "type": "Feature", "properties": { "DTMRound": 23, "State": "ADAMAWA", "StatePcode": "NG002", "LGAPcode": "NG002007", "LGA": "HONG", "WardCode": "NG002007006", "Ward": "HONG", "SiteID": "AD_H146", "Site Name": "ANGUWAN HAUSAWA", "Longitude": 12.92972, "Latitude": 10.2328, "classifica": "Host Communities", "NumberHous": 13, "NumberIndi": 90 }, "geometry": { "type": "Point", "coordinates": [ 12.92972, 10.2328 ] } },
{ "type": "Feature", "properties": { "DTMRound": 23, "State": "ADAMAWA", "StatePcode": "NG002", "LGAPcode": "NG002007", "LGA": "HONG", "WardCode": "NG002007006", "Ward": "HONG", "SiteID": "AD_H147", "Site Name": "WAJA", "Longitude": 12.9206, "Latitude": 10.23325, "classifica": "Host Communities", "NumberHous": 11, "NumberIndi": 79 }, "geometry": { "type": "Point", "coordinates": [ 12.9206, 10.23325 ] } },
{ "type": "Feature", "properties": { "DTMRound": 23, "State": "ADAMAWA", "StatePcode": "NG002", "LGAPcode": "NG002007", "LGA": "HONG", "WardCode": "NG002007007", "Ward": "HUSHERE ZUM", "SiteID": "AD_H148", "Site Name": "KWAKWAAH", "Longitude": 13.04694, "Latitude": 10.18704, "classifica": "Host Communities", "NumberHous": 2, "NumberIndi": 13 }, "geometry": { "type": "Point", "coordinates": [ 13.04694, 10.18704 ] } },
{ "type": "Feature", "properties": { "DTMRound": 23, "State": "ADAMAWA", "StatePcode": "NG002", "LGAPcode": "NG002007", "LGA": "HONG", "WardCode": "NG002007007", "Ward": "HUSHERE ZUM", "SiteID": "AD_H149", "Site Name": "JABA BIRI", "Longitude": 13.07419, "Latitude": 10.14499, "classifica": "Host Communities", "NumberHous": 1, "NumberIndi": 9 }, "geometry": { "type": "Point", "coordinates": [ 13.07419, 10.14499 ] } },
{ "type": "Feature", "properties": { "DTMRound": 23, "State": "ADAMAWA", "StatePcode": "NG002", "LGAPcode": "NG002007", "LGA": "HONG", "WardCode": "NG002007007", "Ward": "HUSHERE ZUM", "SiteID": "AD_H150", "Site Name": "GUBDAHAM", "Longitude": 13.07062, "Latitude": 10.14869, "classifica": "Host Communities", "NumberHous": 1, "NumberIndi": 4 }, "geometry": { "type": "Point", "coordinates": [ 13.07062, 10.14869 ] } },
{ "type": "Feature", "properties": { "DTMRound": 23, "State": "ADAMAWA", "StatePcode": "NG002", "LGAPcode": "NG002007", "LGA": "HONG", "WardCode": "NG002007008", "Ward": "KWARHI", "SiteID": "AD_H151", "Site Name": "MARARABA MUBI", "Longitude": 13.15855, "Latitude": 10.31322, "classifica": "Host Communities", "NumberHous": 26, "NumberIndi": 151 }, "geometry": { "type": "Point", "coordinates": [ 13.15855, 10.31322 ] } },
{ "type": "Feature", "properties": { "DTMRound": 23, "State": "ADAMAWA", "StatePcode": "NG002", "LGAPcode": "NG002007", "LGA": "HONG", "WardCode": "NG002007008", "Ward": "KWARHI", "SiteID": "AD_H152", "Site Name": "KWAGWANG", "Longitude": 13.15871, "Latitude": 10.3189, "classifica": "Host Communities", "NumberHous": 3, "NumberIndi": 21 }, "geometry": { "type": "Point", "coordinates": [ 13.15871, 10.3189 ] } },
{ "type": "Feature", "properties": { "DTMRound": 23, "State": "ADAMAWA", "StatePcode": "NG002", "LGAPcode": "NG002007", "LGA": "HONG", "WardCode": "NG002007008", "Ward": "KWARHI", "SiteID": "AD_H153", "Site Name": "KWARHI C", "Longitude": 13.1735, "Latitude": 10.32697, "classifica": "Host Communities", "NumberHous": 13, "NumberIndi": 78 }, "geometry": { "type": "Point", "coordinates": [ 13.1735, 10.32697 ] } },
{ "type": "Feature", "properties": { "DTMRound": 23, "State": "ADAMAWA", "StatePcode": "NG002", "LGAPcode": "NG002007", "LGA": "HONG", "WardCode": "NG002007008", "Ward": "KWARHI", "SiteID": "AD_H154", "Site Name": "DZAKWA", "Longitude": 13.16414, "Latitude": 10.3548, "classifica": "Host Communities", "NumberHous": 8, "NumberIndi": 36 }, "geometry": { "type": "Point", "coordinates": [ 13.16414, 10.3548 ] } },
{ "type": "Feature", "properties": { "DTMRound": 23, "State": "ADAMAWA", "StatePcode": "NG002", "LGAPcode": "NG002007", "LGA": "HONG", "WardCode": "NG002007009", "Ward": "MAYO LOPE", "SiteID": "AD_H155", "Site Name": "KURMI", "Longitude": 13.15759, "Latitude": 10.24081, "classifica": "Host Communities", "NumberHous": 4, "NumberIndi": 31 }, "geometry": { "type": "Point", "coordinates": [ 13.15759, 10.24081 ] } },
{ "type": "Feature", "properties": { "DTMRound": 23, "State": "ADAMAWA", "StatePcode": "NG002", "LGAPcode": "NG002007", "LGA": "HONG", "WardCode": "NG002007009", "Ward": "MAYO LOPE", "SiteID": "AD_H156", "Site Name": "GWAMA", "Longitude": 13.1679, "Latitude": 10.27246, "classifica": "Host Communities", "NumberHous": 1, "NumberIndi": 4 }, "geometry": { "type": "Point", "coordinates": [ 13.1679, 10.27246 ] } },
{ "type": "Feature", "properties": { "DTMRound": 23, "State": "ADAMAWA", "StatePcode": "NG002", "LGAPcode": "NG002007", "LGA": "HONG", "WardCode": "NG002007009", "Ward": "MAYO LOPE", "SiteID": "AD_H157", "Site Name": "TASHAN RAKE", "Longitude": 13.16262, "Latitude": 10.31125, "classifica": "Host Communities", "NumberHous": 2, "NumberIndi": 17 }, "geometry": { "type": "Point", "coordinates": [ 13.16262, 10.31125 ] } },
{ "type": "Feature", "properties": { "DTMRound": 23, "State": "ADAMAWA", "StatePcode": "NG002", "LGAPcode": "NG002007", "LGA": "HONG", "WardCode": "NG002007010", "Ward": "SHANGUI", "SiteID": "AD_H158", "Site Name": "EUROPEAN QUARTERS", "Longitude": 12.93592, "Latitude": 10.23401, "classifica": "Host Communities", "NumberHous": 7, "NumberIndi": 67 }, "geometry": { "type": "Point", "coordinates": [ 12.93592, 10.23401 ] } },
{ "type": "Feature", "properties": { "DTMRound": 23, "State": "ADAMAWA", "StatePcode": "NG002", "LGAPcode": "NG002007", "LGA": "HONG", "WardCode": "NG002007010", "Ward": "SHANGUI", "SiteID": "AD_H159", "Site Name": "MANZA'A", "Longitude": 12.93024, "Latitude": 10.24832, "classifica": "Host Communities", "NumberHous": 3, "NumberIndi": 30 }, "geometry": { "type": "Point", "coordinates": [ 12.93024, 10.24832 ] } },
{ "type": "Feature", "properties": { "DTMRound": 23, "State": "ADAMAWA", "StatePcode": "NG002", "LGAPcode": "NG002007", "LGA": "HONG", "WardCode": "NG002007010", "Ward": "SHANGUI", "SiteID": "AD_H160", "Site Name": "KWALEBLA", "Longitude": 12.9359, "Latitude": 10.23642, "classifica": "Host Communities", "NumberHous": 3, "NumberIndi": 35 }, "geometry": { "type": "Point", "coordinates": [ 12.9359, 10.23642 ] } },
{ "type": "Feature", "properties": { "DTMRound": 23, "State": "ADAMAWA", "StatePcode": "NG002", "LGAPcode": "NG002007", "LGA": "HONG", "WardCode": "NG002007010", "Ward": "SHANGUI", "SiteID": "AD_H161", "Site Name": "MUNGA KILBA", "Longitude": 12.88705, "Latitude": 10.29851, "classifica": "Host Communities", "NumberHous": 3, "NumberIndi": 28 }, "geometry": { "type": "Point", "coordinates": [ 12.88705, 10.29851 ] } },
{ "type": "Feature", "properties": { "DTMRound": 23, "State": "ADAMAWA", "StatePcode": "NG002", "LGAPcode": "NG002007", "LGA": "HONG", "WardCode": "NG002007011", "Ward": "THILBANG", "SiteID": "AD_H163", "Site Name": "PELLA", "Longitude": 12.92647, "Latitude": 10.14703, "classifica": "Host Communities", "NumberHous": 9, "NumberIndi": 50 }, "geometry": { "type": "Point", "coordinates": [ 12.92647, 10.14703 ] } },
{ "type": "Feature", "properties": { "DTMRound": 23, "State": "ADAMAWA", "StatePcode": "NG002", "LGAPcode": "NG002007", "LGA": "HONG", "WardCode": "NG002007011", "Ward": "THILBANG", "SiteID": "AD_H164", "Site Name": "NGALBI", "Longitude": 12.91755, "Latitude": 10.1774, "classifica": "Host Communities", "NumberHous": 2, "NumberIndi": 11 }, "geometry": { "type": "Point", "coordinates": [ 12.91755, 10.1774 ] } },
{ "type": "Feature", "properties": { "DTMRound": 23, "State": "ADAMAWA", "StatePcode": "NG002", "LGAPcode": "NG002007", "LGA": "HONG", "WardCode": "NG002007011", "Ward": "THILBANG", "SiteID": "AD_H165", "Site Name": "THABU", "Longitude": 12.92864, "Latitude": 10.22755, "classifica": "Host Communities", "NumberHous": 10, "NumberIndi": 55 }, "geometry": { "type": "Point", "coordinates": [ 12.92864, 10.22755 ] } },
{ "type": "Feature", "properties": { "DTMRound": 23, "State": "ADAMAWA", "StatePcode": "NG002", "LGAPcode": "NG002007", "LGA": "HONG", "WardCode": "NG002007011", "Ward": "THILBANG", "SiteID": "AD_H166", "Site Name": "CROSS RIVER", "Longitude": 12.92275, "Latitude": 10.22428, "classifica": "Host Communities", "NumberHous": 56, "NumberIndi": 376 }, "geometry": { "type": "Point", "coordinates": [ 12.92275, 10.22428 ] } },
{ "type": "Feature", "properties": { "DTMRound": 23, "State": "ADAMAWA", "StatePcode": "NG002", "LGAPcode": "NG002007", "LGA": "HONG", "WardCode": "NG002007012", "Ward": "UBA", "SiteID": "AD_H167", "Site Name": "ANGUWAN SARKI", "Longitude": 13.22283, "Latitude": 10.45372, "classifica": "Host Communities", "NumberHous": 54, "NumberIndi": 384 }, "geometry": { "type": "Point", "coordinates": [ 13.22283, 10.45372 ] } },
{ "type": "Feature", "properties": { "DTMRound": 23, "State": "ADAMAWA", "StatePcode": "NG002", "LGAPcode": "NG002007", "LGA": "HONG", "WardCode": "NG002007012", "Ward": "UBA", "SiteID": "AD_H168", "Site Name": "MANPAYA", "Longitude": 13.22319, "Latitude": 10.44849, "classifica": "Host Communities", "NumberHous": 63, "NumberIndi": 440 }, "geometry": { "type": "Point", "coordinates": [ 13.22319, 10.44849 ] } },
{ "type": "Feature", "properties": { "DTMRound": 23, "State": "ADAMAWA", "StatePcode": "NG002", "LGAPcode": "NG002007", "LGA": "HONG", "WardCode": "NG002007012", "Ward": "UBA", "SiteID": "AD_H169", "Site Name": "MUFACHAKA", "Longitude": 13.2224, "Latitude": 10.45002, "classifica": "Host Communities", "NumberHous": 47, "NumberIndi": 328 }, "geometry": { "type": "Point", "coordinates": [ 13.2224, 10.45002 ] } },
{ "type": "Feature", "properties": { "DTMRound": 23, "State": "ADAMAWA", "StatePcode": "NG002", "LGAPcode": "NG002008", "LGA": "JADA", "WardCode": "NG002008002", "Ward": "JADA I", "SiteID": "AD_H170", "Site Name": "ANGUWAN FADA", "Longitude": 12.15388, "Latitude": 8.75148, "classifica": "Host Communities", "NumberHous": 9, "NumberIndi": 54 }, "geometry": { "type": "Point", "coordinates": [ 12.15388, 8.75148 ] } },
{ "type": "Feature", "properties": { "DTMRound": 23, "State": "ADAMAWA", "StatePcode": "NG002", "LGAPcode": "NG002008", "LGA": "JADA", "WardCode": "NG002008002", "Ward": "JADA I", "SiteID": "AD_H171", "Site Name": "TUNDUN WADA", "Longitude": 12.15117, "Latitude": 8.75301, "classifica": "Host Communities", "NumberHous": 7, "NumberIndi": 42 }, "geometry": { "type": "Point", "coordinates": [ 12.15117, 8.75301 ] } },
{ "type": "Feature", "properties": { "DTMRound": 23, "State": "ADAMAWA", "StatePcode": "NG002", "LGAPcode": "NG002008", "LGA": "JADA", "WardCode": "NG002008002", "Ward": "JADA I", "SiteID": "AD_H172", "Site Name": "BARKI", "Longitude": 12.14779, "Latitude": 8.75239, "classifica": "Host Communities", "NumberHous": 6, "NumberIndi": 36 }, "geometry": { "type": "Point", "coordinates": [ 12.14779, 8.75239 ] } },
{ "type": "Feature", "properties": { "DTMRound": 23, "State": "ADAMAWA", "StatePcode": "NG002", "LGAPcode": "NG002008", "LGA": "JADA", "WardCode": "NG002008003", "Ward": "JADA II", "SiteID": "AD_H173", "Site Name": "WALIBE", "Longitude": 12.15578, "Latitude": 8.75489, "classifica": "Host Communities", "NumberHous": 10, "NumberIndi": 60 }, "geometry": { "type": "Point", "coordinates": [ 12.15578, 8.75489 ] } },
{ "type": "Feature", "properties": { "DTMRound": 23, "State": "ADAMAWA", "StatePcode": "NG002", "LGAPcode": "NG002008", "LGA": "JADA", "WardCode": "NG002008003", "Ward": "JADA II", "SiteID": "AD_H174", "Site Name": "JOHN HOLT", "Longitude": 12.1554, "Latitude": 8.75447, "classifica": "Host Communities", "NumberHous": 11, "NumberIndi": 66 }, "geometry": { "type": "Point", "coordinates": [ 12.1554, 8.75447 ] } },
{ "type": "Feature", "properties": { "DTMRound": 23, "State": "ADAMAWA", "StatePcode": "NG002", "LGAPcode": "NG002008", "LGA": "JADA", "WardCode": "NG002008003", "Ward": "JADA II", "SiteID": "AD_H175", "Site Name": "DUTA GRA", "Longitude": 12.1571, "Latitude": 8.75411, "classifica": "Host Communities", "NumberHous": 9, "NumberIndi": 54 }, "geometry": { "type": "Point", "coordinates": [ 12.1571, 8.75411 ] } },
{ "type": "Feature", "properties": { "DTMRound": 23, "State": "ADAMAWA", "StatePcode": "NG002", "LGAPcode": "NG002008", "LGA": "JADA", "WardCode": "NG002008004", "Ward": "KOMA I", "SiteID": "AD_H176", "Site Name": "KOMA NASARAWA", "Longitude": 12.56553, "Latitude": 8.76006, "classifica": "Host Communities", "NumberHous": 3, "NumberIndi": 18 }, "geometry": { "type": "Point", "coordinates": [ 12.56553, 8.76006 ] } },
{ "type": "Feature", "properties": { "DTMRound": 23, "State": "ADAMAWA", "StatePcode": "NG002", "LGAPcode": "NG002008", "LGA": "JADA", "WardCode": "NG002008004", "Ward": "KOMA I", "SiteID": "AD_H177", "Site Name": "KOMA TATILA", "Longitude": 12.56646, "Latitude": 8.75965, "classifica": "Host Communities", "NumberHous": 2, "NumberIndi": 12 }, "geometry": { "type": "Point", "coordinates": [ 12.56646, 8.75965 ] } },
{ "type": "Feature", "properties": { "DTMRound": 23, "State": "ADAMAWA", "StatePcode": "NG002", "LGAPcode": "NG002008", "LGA": "JADA", "WardCode": "NG002008005", "Ward": "KOMA II", "SiteID": "AD_H178", "Site Name": "DAGE", "Longitude": 12.62597, "Latitude": 8.8074, "classifica": "Host Communities", "NumberHous": 2, "NumberIndi": 12 }, "geometry": { "type": "Point", "coordinates": [ 12.62597, 8.8074 ] } },
{ "type": "Feature", "properties": { "DTMRound": 23, "State": "ADAMAWA", "StatePcode": "NG002", "LGAPcode": "NG002008", "LGA": "JADA", "WardCode": "NG002008005", "Ward": "KOMA II", "SiteID": "AD_H179", "Site Name": "JUMMARE", "Longitude": 12.62546, "Latitude": 8.80746, "classifica": "Host Communities", "NumberHous": 4, "NumberIndi": 24 }, "geometry": { "type": "Point", "coordinates": [ 12.62546, 8.80746 ] } },
{ "type": "Feature", "properties": { "DTMRound": 23, "State": "ADAMAWA", "StatePcode": "NG002", "LGAPcode": "NG002008", "LGA": "JADA", "WardCode": "NG002008006", "Ward": "LEKO", "SiteID": "AD_H180", "Site Name": "SO'OGARI", "Longitude": 12.43561, "Latitude": 8.62754, "classifica": "Host Communities", "NumberHous": 4, "NumberIndi": 24 }, "geometry": { "type": "Point", "coordinates": [ 12.43561, 8.62754 ] } },
{ "type": "Feature", "properties": { "DTMRound": 23, "State": "ADAMAWA", "StatePcode": "NG002", "LGAPcode": "NG002008", "LGA": "JADA", "WardCode": "NG002008011", "Ward": "YELLI", "SiteID": "AD_H183", "Site Name": "KOJOLI", "Longitude": 12.37885, "Latitude": 8.57151, "classifica": "Host Communities", "NumberHous": 4, "NumberIndi": 24 }, "geometry": { "type": "Point", "coordinates": [ 12.37885, 8.57151 ] } },
{ "type": "Feature", "properties": { "DTMRound": 23, "State": "ADAMAWA", "StatePcode": "NG002", "LGAPcode": "NG002009", "LGA": "LAMURDE", "WardCode": "NG002009001", "Ward": "DUBWANGUN", "SiteID": "AD_H184", "Site Name": "DUBWANGUN", "Longitude": 11.87686, "Latitude": 9.56546, "classifica": "Host Communities", "NumberHous": 5, "NumberIndi": 35 }, "geometry": { "type": "Point", "coordinates": [ 11.87686, 9.56546 ] } },
{ "type": "Feature", "properties": { "DTMRound": 23, "State": "ADAMAWA", "StatePcode": "NG002", "LGAPcode": "NG002009", "LGA": "LAMURDE", "WardCode": "NG002009001", "Ward": "DUBWANGUN", "SiteID": "AD_H185", "Site Name": "DUBWAN", "Longitude": 11.87697, "Latitude": 9.56542, "classifica": "Host Communities", "NumberHous": 4, "NumberIndi": 28 }, "geometry": { "type": "Point", "coordinates": [ 11.87697, 9.56542 ] } },
{ "type": "Feature", "properties": { "DTMRound": 23, "State": "ADAMAWA", "StatePcode": "NG002", "LGAPcode": "NG002009", "LGA": "LAMURDE", "WardCode": "NG002009002", "Ward": "GYAWANA", "SiteID": "AD_H186", "Site Name": "GYAWANA", "Longitude": 11.88878, "Latitude": 9.56805, "classifica": "Host Communities", "NumberHous": 75, "NumberIndi": 525 }, "geometry": { "type": "Point", "coordinates": [ 11.88878, 9.56805 ] } },
{ "type": "Feature", "properties": { "DTMRound": 23, "State": "ADAMAWA", "StatePcode": "NG002", "LGAPcode": "NG002009", "LGA": "LAMURDE", "WardCode": "NG002009002", "Ward": "GYAWANA", "SiteID": "AD_H452", "Site Name": "ANGUWAN OVERSEER", "Longitude": 11.9475, "Latitude": 9.5426, "classifica": "Host Communities", "NumberHous": 105, "NumberIndi": 750 }, "geometry": { "type": "Point", "coordinates": [ 11.9475, 9.5426 ] } },
{ "type": "Feature", "properties": { "DTMRound": 23, "State": "ADAMAWA", "StatePcode": "NG002", "LGAPcode": "NG002009", "LGA": "LAMURDE", "WardCode": "NG002009003", "Ward": "LAFIYA", "SiteID": "AD_H187", "Site Name": "LAFIYA", "Longitude": 11.8202, "Latitude": 9.65062, "classifica": "Host Communities", "NumberHous": 67, "NumberIndi": 454 }, "geometry": { "type": "Point", "coordinates": [ 11.8202, 9.65062 ] } },
{ "type": "Feature", "properties": { "DTMRound": 23, "State": "ADAMAWA", "StatePcode": "NG002", "LGAPcode": "NG002009", "LGA": "LAMURDE", "WardCode": "NG002009003", "Ward": "LAFIYA", "SiteID": "AD_H188", "Site Name": "MURSURMI", "Longitude": 11.82037, "Latitude": 9.65064, "classifica": "Host Communities", "NumberHous": 52, "NumberIndi": 366 }, "geometry": { "type": "Point", "coordinates": [ 11.82037, 9.65064 ] } },
{ "type": "Feature", "properties": { "DTMRound": 23, "State": "ADAMAWA", "StatePcode": "NG002", "LGAPcode": "NG002009", "LGA": "LAMURDE", "WardCode": "NG002009004", "Ward": "LAMURDE", "SiteID": "AD_H189", "Site Name": "BUAMATUDO", "Longitude": 11.78974, "Latitude": 9.60571, "classifica": "Host Communities", "NumberHous": 7, "NumberIndi": 49 }, "geometry": { "type": "Point", "coordinates": [ 11.78974, 9.60571 ] } },
{ "type": "Feature", "properties": { "DTMRound": 23, "State": "ADAMAWA", "StatePcode": "NG002", "LGAPcode": "NG002009", "LGA": "LAMURDE", "WardCode": "NG002009004", "Ward": "LAMURDE", "SiteID": "AD_H190", "Site Name": "MUNATERI", "Longitude": 11.79121, "Latitude": 9.61125, "classifica": "Host Communities", "NumberHous": 8, "NumberIndi": 58 }, "geometry": { "type": "Point", "coordinates": [ 11.79121, 9.61125 ] } },
{ "type": "Feature", "properties": { "DTMRound": 23, "State": "ADAMAWA", "StatePcode": "NG002", "LGAPcode": "NG002009", "LGA": "LAMURDE", "WardCode": "NG002009004", "Ward": "LAMURDE", "SiteID": "AD_H191", "Site Name": "LAMURDE", "Longitude": 11.79659, "Latitude": 9.60629, "classifica": "Host Communities", "NumberHous": 25, "NumberIndi": 135 }, "geometry": { "type": "Point", "coordinates": [ 11.79659, 9.60629 ] } },
{ "type": "Feature", "properties": { "DTMRound": 23, "State": "ADAMAWA", "StatePcode": "NG002", "LGAPcode": "NG002009", "LGA": "LAMURDE", "WardCode": "NG002009005", "Ward": "NGBAKOWO", "SiteID": "AD_H192", "Site Name": "TIGNO KOGI", "Longitude": 11.73442, "Latitude": 9.50709, "classifica": "Host Communities", "NumberHous": 19, "NumberIndi": 130 }, "geometry": { "type": "Point", "coordinates": [ 11.73442, 9.50709 ] } },
{ "type": "Feature", "properties": { "DTMRound": 23, "State": "ADAMAWA", "StatePcode": "NG002", "LGAPcode": "NG002009", "LGA": "LAMURDE", "WardCode": "NG002009005", "Ward": "NGBAKOWO", "SiteID": "AD_H193", "Site Name": "MBAKOWO", "Longitude": 11.80065, "Latitude": 9.51882, "classifica": "Host Communities", "NumberHous": 35, "NumberIndi": 210 }, "geometry": { "type": "Point", "coordinates": [ 11.80065, 9.51882 ] } },
{ "type": "Feature", "properties": { "DTMRound": 23, "State": "ADAMAWA", "StatePcode": "NG002", "LGAPcode": "NG002009", "LGA": "LAMURDE", "WardCode": "NG002009007", "Ward": "OPALO", "SiteID": "AD_H194", "Site Name": "CHUMUN", "Longitude": 11.93088, "Latitude": 9.51017, "classifica": "Host Communities", "NumberHous": 3, "NumberIndi": 21 }, "geometry": { "type": "Point", "coordinates": [ 11.93088, 9.51017 ] } },
{ "type": "Feature", "properties": { "DTMRound": 23, "State": "ADAMAWA", "StatePcode": "NG002", "LGAPcode": "NG002009", "LGA": "LAMURDE", "WardCode": "NG002009007", "Ward": "OPALO", "SiteID": "AD_H195", "Site Name": "OPALO", "Longitude": 11.931, "Latitude": 9.51147, "classifica": "Host Communities", "NumberHous": 6, "NumberIndi": 39 }, "geometry": { "type": "Point", "coordinates": [ 11.931, 9.51147 ] } },
{ "type": "Feature", "properties": { "DTMRound": 23, "State": "ADAMAWA", "StatePcode": "NG002", "LGAPcode": "NG002009", "LGA": "LAMURDE", "WardCode": "NG002009008", "Ward": "RIGANGE", "SiteID": "AD_H196", "Site Name": "RIGANGE", "Longitude": 11.76898, "Latitude": 9.57287, "classifica": "Host Communities", "NumberHous": 24, "NumberIndi": 168 }, "geometry": { "type": "Point", "coordinates": [ 11.76898, 9.57287 ] } },
{ "type": "Feature", "properties": { "DTMRound": 23, "State": "ADAMAWA", "StatePcode": "NG002", "LGAPcode": "NG002009", "LGA": "LAMURDE", "WardCode": "NG002009010", "Ward": "WADUKU", "SiteID": "AD_H197", "Site Name": "TIGNO DUTSE", "Longitude": 11.69021, "Latitude": 9.543, "classifica": "Host Communities", "NumberHous": 4, "NumberIndi": 27 }, "geometry": { "type": "Point", "coordinates": [ 11.69021, 9.543 ] } },
{ "type": "Feature", "properties": { "DTMRound": 23, "State": "ADAMAWA", "StatePcode": "NG002", "LGAPcode": "NG002009", "LGA": "LAMURDE", "WardCode": "NG002009010", "Ward": "WADUKU", "SiteID": "AD_H198", "Site Name": "WADUKU", "Longitude": 11.64495, "Latitude": 9.50874, "classifica": "Host Communities", "NumberHous": 5, "NumberIndi": 28 }, "geometry": { "type": "Point", "coordinates": [ 11.64495, 9.50874 ] } },
{ "type": "Feature", "properties": { "DTMRound": 23, "State": "ADAMAWA", "StatePcode": "NG002", "LGAPcode": "NG002010", "LGA": "MADAGALI", "WardCode": "NG002010001", "Ward": "BABEL", "SiteID": "AD_H199", "Site Name": "DRIF", "Longitude": 13.6129, "Latitude": 10.8621, "classifica": "Host Communities", "NumberHous": 70, "NumberIndi": 350 }, "geometry": { "type": "Point", "coordinates": [ 13.6129, 10.8621 ] } },
{ "type": "Feature", "properties": { "DTMRound": 23, "State": "ADAMAWA", "StatePcode": "NG002", "LGAPcode": "NG002010", "LGA": "MADAGALI", "WardCode": "NG002010001", "Ward": "BABEL", "SiteID": "AD_H200", "Site Name": "KAMBURO", "Longitude": 13.50344, "Latitude": 10.86215, "classifica": "Host Communities", "NumberHous": 95, "NumberIndi": 475 }, "geometry": { "type": "Point", "coordinates": [ 13.50344, 10.86215 ] } },
{ "type": "Feature", "properties": { "DTMRound": 23, "State": "ADAMAWA", "StatePcode": "NG002", "LGAPcode": "NG002010", "LGA": "MADAGALI", "WardCode": "NG002010001", "Ward": "BABEL", "SiteID": "AD_H201", "Site Name": "NYIBANGO", "Longitude": 13.60542, "Latitude": 10.8157, "classifica": "Host Communities", "NumberHous": 80, "NumberIndi": 400 }, "geometry": { "type": "Point", "coordinates": [ 13.60542, 10.8157 ] } },
{ "type": "Feature", "properties": { "DTMRound": 23, "State": "ADAMAWA", "StatePcode": "NG002", "LGAPcode": "NG002010", "LGA": "MADAGALI", "WardCode": "NG002010001", "Ward": "BABEL", "SiteID": "AD_H202", "Site Name": "S\/SETTLEMENT", "Longitude": 13.61329, "Latitude": 10.8868, "classifica": "Host Communities", "NumberHous": 82, "NumberIndi": 410 }, "geometry": { "type": "Point", "coordinates": [ 13.61329, 10.8868 ] } },
{ "type": "Feature", "properties": { "DTMRound": 23, "State": "ADAMAWA", "StatePcode": "NG002", "LGAPcode": "NG002010", "LGA": "MADAGALI", "WardCode": "NG002010001", "Ward": "BABEL", "SiteID": "AD_H203", "Site Name": "VENGO", "Longitude": 13.6294, "Latitude": 10.8474, "classifica": "Host Communities", "NumberHous": 30, "NumberIndi": 150 }, "geometry": { "type": "Point", "coordinates": [ 13.6294, 10.8474 ] } },
{ "type": "Feature", "properties": { "DTMRound": 23, "State": "ADAMAWA", "StatePcode": "NG002", "LGAPcode": "NG002010", "LGA": "MADAGALI", "WardCode": "NG002010002", "Ward": "DUHU\/ SHUWA", "SiteID": "AD_H204", "Site Name": "KUBUR SHUWA", "Longitude": 13.44864, "Latitude": 10.70588, "classifica": "Host Communities", "NumberHous": 90, "NumberIndi": 450 }, "geometry": { "type": "Point", "coordinates": [ 13.44864, 10.70588 ] } },
{ "type": "Feature", "properties": { "DTMRound": 23, "State": "ADAMAWA", "StatePcode": "NG002", "LGAPcode": "NG002010", "LGA": "MADAGALI", "WardCode": "NG002010002", "Ward": "DUHU\/ SHUWA", "SiteID": "AD_H205", "Site Name": "MAI WANDU", "Longitude": 13.45115, "Latitude": 10.69698, "classifica": "Host Communities", "NumberHous": 15, "NumberIndi": 75 }, "geometry": { "type": "Point", "coordinates": [ 13.45115, 10.69698 ] } },
{ "type": "Feature", "properties": { "DTMRound": 23, "State": "ADAMAWA", "StatePcode": "NG002", "LGAPcode": "NG002010", "LGA": "MADAGALI", "WardCode": "NG002010002", "Ward": "DUHU\/ SHUWA", "SiteID": "AD_H206", "Site Name": "SHUWA", "Longitude": 13.41723, "Latitude": 10.74597, "classifica": "Host Communities", "NumberHous": 180, "NumberIndi": 900 }, "geometry": { "type": "Point", "coordinates": [ 13.41723, 10.74597 ] } },
{ "type": "Feature", "properties": { "DTMRound": 23, "State": "ADAMAWA", "StatePcode": "NG002", "LGAPcode": "NG002010", "LGA": "MADAGALI", "WardCode": "NG002010002", "Ward": "DUHU\/ SHUWA", "SiteID": "AD_H207", "Site Name": "DUHU", "Longitude": 13.43881, "Latitude": 10.78742, "classifica": "Host Communities", "NumberHous": 170, "NumberIndi": 850 }, "geometry": { "type": "Point", "coordinates": [ 13.43881, 10.78742 ] } },
{ "type": "Feature", "properties": { "DTMRound": 23, "State": "ADAMAWA", "StatePcode": "NG002", "LGAPcode": "NG002010", "LGA": "MADAGALI", "WardCode": "NG002010003", "Ward": "GULAK", "SiteID": "AD_H208", "Site Name": "MISSION", "Longitude": 13.45349, "Latitude": 10.80424, "classifica": "Host Communities", "NumberHous": 232, "NumberIndi": 1160 }, "geometry": { "type": "Point", "coordinates": [ 13.45349, 10.80424 ] } },
{ "type": "Feature", "properties": { "DTMRound": 23, "State": "ADAMAWA", "StatePcode": "NG002", "LGAPcode": "NG002010", "LGA": "MADAGALI", "WardCode": "NG002010003", "Ward": "GULAK", "SiteID": "AD_H209", "Site Name": "MARKET SQUARE", "Longitude": 13.45965, "Latitude": 10.80439, "classifica": "Host Communities", "NumberHous": 268, "NumberIndi": 1340 }, "geometry": { "type": "Point", "coordinates": [ 13.45965, 10.80439 ] } },
{ "type": "Feature", "properties": { "DTMRound": 23, "State": "ADAMAWA", "StatePcode": "NG002", "LGAPcode": "NG002010", "LGA": "MADAGALI", "WardCode": "NG002010003", "Ward": "GULAK", "SiteID": "AD_H210", "Site Name": "GULAK GARI", "Longitude": 13.45888, "Latitude": 10.802, "classifica": "Host Communities", "NumberHous": 186, "NumberIndi": 930 }, "geometry": { "type": "Point", "coordinates": [ 13.45888, 10.802 ] } },
{ "type": "Feature", "properties": { "DTMRound": 23, "State": "ADAMAWA", "StatePcode": "NG002", "LGAPcode": "NG002010", "LGA": "MADAGALI", "WardCode": "NG002010003", "Ward": "GULAK", "SiteID": "AD_H211", "Site Name": "GAR JALINGO", "Longitude": 13.46472, "Latitude": 10.81232, "classifica": "Host Communities", "NumberHous": 152, "NumberIndi": 760 }, "geometry": { "type": "Point", "coordinates": [ 13.46472, 10.81232 ] } },
{ "type": "Feature", "properties": { "DTMRound": 23, "State": "ADAMAWA", "StatePcode": "NG002", "LGAPcode": "NG002010", "LGA": "MADAGALI", "WardCode": "NG002010003", "Ward": "GULAK", "SiteID": "AD_H212", "Site Name": "BAKIN DUTSE", "Longitude": 13.48173, "Latitude": 10.84359, "classifica": "Host Communities", "NumberHous": 48, "NumberIndi": 240 }, "geometry": { "type": "Point", "coordinates": [ 13.48173, 10.84359 ] } },
{ "type": "Feature", "properties": { "DTMRound": 23, "State": "ADAMAWA", "StatePcode": "NG002", "LGAPcode": "NG002010", "LGA": "MADAGALI", "WardCode": "NG002010004", "Ward": "HYAMBULA", "SiteID": "AD_H213", "Site Name": "HYAMBULA", "Longitude": 13.50278, "Latitude": 10.86135, "classifica": "Host Communities", "NumberHous": 30, "NumberIndi": 150 }, "geometry": { "type": "Point", "coordinates": [ 13.50278, 10.86135 ] } },
{ "type": "Feature", "properties": { "DTMRound": 23, "State": "ADAMAWA", "StatePcode": "NG002", "LGAPcode": "NG002010", "LGA": "MADAGALI", "WardCode": "NG002010004", "Ward": "HYAMBULA", "SiteID": "AD_H214", "Site Name": "GADA-DAMAI", "Longitude": 13.52294, "Latitude": 10.86644, "classifica": "Host Communities", "NumberHous": 12, "NumberIndi": 60 }, "geometry": { "type": "Point", "coordinates": [ 13.52294, 10.86644 ] } },
{ "type": "Feature", "properties": { "DTMRound": 23, "State": "ADAMAWA", "StatePcode": "NG002", "LGAPcode": "NG002010", "LGA": "MADAGALI", "WardCode": "NG002010004", "Ward": "HYAMBULA", "SiteID": "AD_H215", "Site Name": "JILANG II", "Longitude": 13.54101, "Latitude": 10.8758, "classifica": "Host Communities", "NumberHous": 11, "NumberIndi": 55 }, "geometry": { "type": "Point", "coordinates": [ 13.54101, 10.8758 ] } },
{ "type": "Feature", "properties": { "DTMRound": 23, "State": "ADAMAWA", "StatePcode": "NG002", "LGAPcode": "NG002010", "LGA": "MADAGALI", "WardCode": "NG002010006", "Ward": "MADAGALI", "SiteID": "AD_H216", "Site Name": "SABON GARI", "Longitude": 13.62096, "Latitude": 10.89531, "classifica": "Host Communities", "NumberHous": 85, "NumberIndi": 425 }, "geometry": { "type": "Point", "coordinates": [ 13.62096, 10.89531 ] } },
{ "type": "Feature", "properties": { "DTMRound": 23, "State": "ADAMAWA", "StatePcode": "NG002", "LGAPcode": "NG002010", "LGA": "MADAGALI", "WardCode": "NG002010006", "Ward": "MADAGALI", "SiteID": "AD_H217", "Site Name": "SABON LAYI", "Longitude": 13.62953, "Latitude": 10.89229, "classifica": "Host Communities", "NumberHous": 16, "NumberIndi": 80 }, "geometry": { "type": "Point", "coordinates": [ 13.62953, 10.89229 ] } },
{ "type": "Feature", "properties": { "DTMRound": 23, "State": "ADAMAWA", "StatePcode": "NG002", "LGAPcode": "NG002010", "LGA": "MADAGALI", "WardCode": "NG002010006", "Ward": "MADAGALI", "SiteID": "AD_H218", "Site Name": "HUMSHE", "Longitude": 13.62814, "Latitude": 10.88537, "classifica": "Host Communities", "NumberHous": 3, "NumberIndi": 15 }, "geometry": { "type": "Point", "coordinates": [ 13.62814, 10.88537 ] } },
{ "type": "Feature", "properties": { "DTMRound": 23, "State": "ADAMAWA", "StatePcode": "NG002", "LGAPcode": "NG002010", "LGA": "MADAGALI", "WardCode": "NG002010006", "Ward": "MADAGALI", "SiteID": "AD_H219", "Site Name": "HURGO", "Longitude": 13.632444, "Latitude": 10.88448, "classifica": "Host Communities", "NumberHous": 35, "NumberIndi": 175 }, "geometry": { "type": "Point", "coordinates": [ 13.632444, 10.88448 ] } },
{ "type": "Feature", "properties": { "DTMRound": 23, "State": "ADAMAWA", "StatePcode": "NG002", "LGAPcode": "NG002010", "LGA": "MADAGALI", "WardCode": "NG002010006", "Ward": "MADAGALI", "SiteID": "AD_H220", "Site Name": "MISSION", "Longitude": 13.61399, "Latitude": 10.8899, "classifica": "Host Communities", "NumberHous": 90, "NumberIndi": 450 }, "geometry": { "type": "Point", "coordinates": [ 13.61399, 10.8899 ] } },
{ "type": "Feature", "properties": { "DTMRound": 23, "State": "ADAMAWA", "StatePcode": "NG002", "LGAPcode": "NG002010", "LGA": "MADAGALI", "WardCode": "NG002010007", "Ward": "PALLAM", "SiteID": "AD_H221", "Site Name": "WURO-GAS", "Longitude": 13.48205, "Latitude": 10.72618, "classifica": "Host Communities", "NumberHous": 63, "NumberIndi": 315 }, "geometry": { "type": "Point", "coordinates": [ 13.48205, 10.72618 ] } },
{ "type": "Feature", "properties": { "DTMRound": 23, "State": "ADAMAWA", "StatePcode": "NG002", "LGAPcode": "NG002010", "LGA": "MADAGALI", "WardCode": "NG002010007", "Ward": "PALLAM", "SiteID": "AD_H222", "Site Name": "DZUEL", "Longitude": 13.49789, "Latitude": 10.76135, "classifica": "Host Communities", "NumberHous": 83, "NumberIndi": 415 }, "geometry": { "type": "Point", "coordinates": [ 13.49789, 10.76135 ] } },
{ "type": "Feature", "properties": { "DTMRound": 23, "State": "ADAMAWA", "StatePcode": "NG002", "LGAPcode": "NG002010", "LGA": "MADAGALI", "WardCode": "NG002010007", "Ward": "PALLAM", "SiteID": "AD_H223", "Site Name": "KOJITI", "Longitude": 13.5127, "Latitude": 10.70324, "classifica": "Host Communities", "NumberHous": 80, "NumberIndi": 400 }, "geometry": { "type": "Point", "coordinates": [ 13.5127, 10.70324 ] } },
{ "type": "Feature", "properties": { "DTMRound": 23, "State": "ADAMAWA", "StatePcode": "NG002", "LGAPcode": "NG002010", "LGA": "MADAGALI", "WardCode": "NG002010007", "Ward": "PALLAM", "SiteID": "AD_H224", "Site Name": "PALLAM \"A\"", "Longitude": 13.48541, "Latitude": 10.73628, "classifica": "Host Communities", "NumberHous": 120, "NumberIndi": 600 }, "geometry": { "type": "Point", "coordinates": [ 13.48541, 10.73628 ] } },
{ "type": "Feature", "properties": { "DTMRound": 23, "State": "ADAMAWA", "StatePcode": "NG002", "LGAPcode": "NG002010", "LGA": "MADAGALI", "WardCode": "NG002010007", "Ward": "PALLAM", "SiteID": "AD_H225", "Site Name": "PALLAM \"B\"", "Longitude": 13.48235, "Latitude": 10.73893, "classifica": "Host Communities", "NumberHous": 280, "NumberIndi": 1400 }, "geometry": { "type": "Point", "coordinates": [ 13.48235, 10.73893 ] } },
{ "type": "Feature", "properties": { "DTMRound": 23, "State": "ADAMAWA", "StatePcode": "NG002", "LGAPcode": "NG002010", "LGA": "MADAGALI", "WardCode": "NG002010008", "Ward": "SHELMI \/ SUKUR\/ VAPURA", "SiteID": "AD_H226", "Site Name": "VAPURA", "Longitude": 13.55965, "Latitude": 10.87495, "classifica": "Host Communities", "NumberHous": 70, "NumberIndi": 350 }, "geometry": { "type": "Point", "coordinates": [ 13.55965, 10.87495 ] } },
{ "type": "Feature", "properties": { "DTMRound": 23, "State": "ADAMAWA", "StatePcode": "NG002", "LGAPcode": "NG002010", "LGA": "MADAGALI", "WardCode": "NG002010008", "Ward": "SHELMI \/ SUKUR\/ VAPURA", "SiteID": "AD_H227", "Site Name": "SUKUR\/RUL", "Longitude": 13.56305, "Latitude": 10.7735, "classifica": "Host Communities", "NumberHous": 280, "NumberIndi": 1400 }, "geometry": { "type": "Point", "coordinates": [ 13.56305, 10.7735 ] } },
{ "type": "Feature", "properties": { "DTMRound": 23, "State": "ADAMAWA", "StatePcode": "NG002", "LGAPcode": "NG002010", "LGA": "MADAGALI", "WardCode": "NG002010008", "Ward": "SHELMI \/ SUKUR\/ VAPURA", "SiteID": "AD_H228", "Site Name": "JILANG", "Longitude": 13.54105, "Latitude": 10.87575, "classifica": "Host Communities", "NumberHous": 12, "NumberIndi": 60 }, "geometry": { "type": "Point", "coordinates": [ 13.54105, 10.87575 ] } },
{ "type": "Feature", "properties": { "DTMRound": 23, "State": "ADAMAWA", "StatePcode": "NG002", "LGAPcode": "NG002010", "LGA": "MADAGALI", "WardCode": "NG002010008", "Ward": "SHELMI \/ SUKUR\/ VAPURA", "SiteID": "AD_H229", "Site Name": "MARKET SQUARE", "Longitude": 13.57245, "Latitude": 10.7975, "classifica": "Host Communities", "NumberHous": 130, "NumberIndi": 650 }, "geometry": { "type": "Point", "coordinates": [ 13.57245, 10.7975 ] } },
{ "type": "Feature", "properties": { "DTMRound": 23, "State": "ADAMAWA", "StatePcode": "NG002", "LGAPcode": "NG002010", "LGA": "MADAGALI", "WardCode": "NG002010008", "Ward": "SHELMI \/ SUKUR\/ VAPURA", "SiteID": "AD_H230", "Site Name": "SHALMI", "Longitude": 13.56294, "Latitude": 10.7725, "classifica": "Host Communities", "NumberHous": 300, "NumberIndi": 1500 }, "geometry": { "type": "Point", "coordinates": [ 13.56294, 10.7725 ] } },
{ "type": "Feature", "properties": { "DTMRound": 23, "State": "ADAMAWA", "StatePcode": "NG002", "LGAPcode": "NG002010", "LGA": "MADAGALI", "WardCode": "NG002010010", "Ward": "WULA", "SiteID": "AD_H231", "Site Name": "MANGO", "Longitude": 13.5778, "Latitude": 10.7925, "classifica": "Host Communities", "NumberHous": 83, "NumberIndi": 415 }, "geometry": { "type": "Point", "coordinates": [ 13.5778, 10.7925 ] } },
{ "type": "Feature", "properties": { "DTMRound": 23, "State": "ADAMAWA", "StatePcode": "NG002", "LGAPcode": "NG002010", "LGA": "MADAGALI", "WardCode": "NG002010010", "Ward": "WULA", "SiteID": "AD_H232", "Site Name": "MUDUVU", "Longitude": 13.5753, "Latitude": 10.79493, "classifica": "Host Communities", "NumberHous": 190, "NumberIndi": 950 }, "geometry": { "type": "Point", "coordinates": [ 13.5753, 10.79493 ] } },
{ "type": "Feature", "properties": { "DTMRound": 23, "State": "ADAMAWA", "StatePcode": "NG002", "LGAPcode": "NG002010", "LGA": "MADAGALI", "WardCode": "NG002010010", "Ward": "WULA", "SiteID": "AD_H233", "Site Name": "KUSHIRI", "Longitude": 13.59075, "Latitude": 10.79849, "classifica": "Host Communities", "NumberHous": 80, "NumberIndi": 400 }, "geometry": { "type": "Point", "coordinates": [ 13.59075, 10.79849 ] } },
{ "type": "Feature", "properties": { "DTMRound": 23, "State": "ADAMAWA", "StatePcode": "NG002", "LGAPcode": "NG002010", "LGA": "MADAGALI", "WardCode": "NG002010010", "Ward": "WULA", "SiteID": "AD_H234", "Site Name": "HANKO", "Longitude": 13.59355, "Latitude": 10.8015, "classifica": "Host Communities", "NumberHous": 27, "NumberIndi": 135 }, "geometry": { "type": "Point", "coordinates": [ 13.59355, 10.8015 ] } },
{ "type": "Feature", "properties": { "DTMRound": 23, "State": "ADAMAWA", "StatePcode": "NG002", "LGAPcode": "NG002011", "LGA": "MAIHA", "WardCode": "NG002011001", "Ward": "BELEL", "SiteID": "AD_H235", "Site Name": "YANGAI", "Longitude": 13.22591, "Latitude": 9.66088, "classifica": "Host Communities", "NumberHous": 21, "NumberIndi": 183 }, "geometry": { "type": "Point", "coordinates": [ 13.22591, 9.66088 ] } },
{ "type": "Feature", "properties": { "DTMRound": 23, "State": "ADAMAWA", "StatePcode": "NG002", "LGAPcode": "NG002011", "LGA": "MAIHA", "WardCode": "NG002011001", "Ward": "BELEL", "SiteID": "AD_H236", "Site Name": "BELEL", "Longitude": 13.22386, "Latitude": 9.65806, "classifica": "Host Communities", "NumberHous": 30, "NumberIndi": 268 }, "geometry": { "type": "Point", "coordinates": [ 13.22386, 9.65806 ] } },
{ "type": "Feature", "properties": { "DTMRound": 23, "State": "ADAMAWA", "StatePcode": "NG002", "LGAPcode": "NG002011", "LGA": "MAIHA", "WardCode": "NG002011001", "Ward": "BELEL", "SiteID": "AD_H237", "Site Name": "JAMTARI", "Longitude": 13.22384, "Latitude": 9.65465, "classifica": "Host Communities", "NumberHous": 38, "NumberIndi": 335 }, "geometry": { "type": "Point", "coordinates": [ 13.22384, 9.65465 ] } },
{ "type": "Feature", "properties": { "DTMRound": 23, "State": "ADAMAWA", "StatePcode": "NG002", "LGAPcode": "NG002011", "LGA": "MAIHA", "WardCode": "NG002011002", "Ward": "HUMBUTUDI", "SiteID": "AD_H238", "Site Name": "KILANGE", "Longitude": 13.15356, "Latitude": 10.12371, "classifica": "Host Communities", "NumberHous": 52, "NumberIndi": 388 }, "geometry": { "type": "Point", "coordinates": [ 13.15356, 10.12371 ] } },
{ "type": "Feature", "properties": { "DTMRound": 23, "State": "ADAMAWA", "StatePcode": "NG002", "LGAPcode": "NG002011", "LGA": "MAIHA", "WardCode": "NG002011002", "Ward": "HUMBUTUDI", "SiteID": "AD_H239", "Site Name": "HUMBUTUDI", "Longitude": 13.15156, "Latitude": 10.12414, "classifica": "Host Communities", "NumberHous": 11, "NumberIndi": 79 }, "geometry": { "type": "Point", "coordinates": [ 13.15156, 10.12414 ] } },
{ "type": "Feature", "properties": { "DTMRound": 23, "State": "ADAMAWA", "StatePcode": "NG002", "LGAPcode": "NG002011", "LGA": "MAIHA", "WardCode": "NG002011003", "Ward": "KONKOL", "SiteID": "AD_H240", "Site Name": "KONKOL", "Longitude": 13.10142, "Latitude": 9.65054, "classifica": "Host Communities", "NumberHous": 83, "NumberIndi": 715 }, "geometry": { "type": "Point", "coordinates": [ 13.10142, 9.65054 ] } },
{ "type": "Feature", "properties": { "DTMRound": 23, "State": "ADAMAWA", "StatePcode": "NG002", "LGAPcode": "NG002011", "LGA": "MAIHA", "WardCode": "NG002011003", "Ward": "KONKOL", "SiteID": "AD_H241", "Site Name": "HULERE", "Longitude": 13.1036, "Latitude": 9.64793, "classifica": "Host Communities", "NumberHous": 76, "NumberIndi": 676 }, "geometry": { "type": "Point", "coordinates": [ 13.1036, 9.64793 ] } },
{ "type": "Feature", "properties": { "DTMRound": 23, "State": "ADAMAWA", "StatePcode": "NG002", "LGAPcode": "NG002011", "LGA": "MAIHA", "WardCode": "NG002011003", "Ward": "KONKOL", "SiteID": "AD_H242", "Site Name": "MARARABA", "Longitude": 13.10479, "Latitude": 9.65051, "classifica": "Host Communities", "NumberHous": 80, "NumberIndi": 746 }, "geometry": { "type": "Point", "coordinates": [ 13.10479, 9.65051 ] } },
{ "type": "Feature", "properties": { "DTMRound": 23, "State": "ADAMAWA", "StatePcode": "NG002", "LGAPcode": "NG002011", "LGA": "MAIHA", "WardCode": "NG002011004", "Ward": "MAIHA GARI", "SiteID": "AD_H243", "Site Name": "MBILA", "Longitude": 13.20889, "Latitude": 10.01312, "classifica": "Host Communities", "NumberHous": 18, "NumberIndi": 191 }, "geometry": { "type": "Point", "coordinates": [ 13.20889, 10.01312 ] } },